$GPGGA,082001.00,0127.5180322,N,10349.0218109,E,1,06,1.2,18.5196,M,3.7094,M,,*6E
$GPGST,082001.00,1.096,5.483,4.262,355.065,5.475,4.272,13.195*65
$GPGGA,082002.00,0127.5161239,N,10349.0226286,E,5,06,1.2,18.3834,M,3.7095,M,2.0,0000*4E
$GPGST,082002.00,0.035,0.571,0.449,15.778,0.563,0.459,1.347*66
$GPGGA,082003.00,0127.5161183,N,10349.0226313,E,5,06,1.2,18.4861,M,3.7095,M,2.0,0000*47
$GPGST,082003.00,0.054,0.529,0.416,16.546,0.521,0.426,1.241*62
$GPGGA,082004.00,0127.5161746,N,10349.0226433,E,5,06,1.2,18.5121,M,3.7095,M,2.0,0000*46
$GPGST,082004.00,0.072,0.495,0.388,16.402,0.487,0.398,1.150*6A
$GPGGA,082005.00,0127.5162469,N,10349.0226911,E,5,06,1.2,18.5371,M,3.7095,M,2.0,0000*40
$GPGST,082005.00,0.082,0.462,0.361,15.669,0.456,0.370,1.066*69
$GPGGA,082006.00,0127.5162750,N,10349.0227433,E,5,06,1.2,18.6418,M,3.7095,M,2.0,0000*4D
$GPGST,082006.00,0.044,0.433,0.337,15.777,0.426,0.345,0.988*60
$GPGGA,082007.00,0127.5163261,N,10349.0227528,E,5,06,1.2,18.6613,M,3.7095,M,2.0,0000*48
$GPGST,082007.00,0.100,0.408,0.317,15.267,0.402,0.324,0.926*6B
$GPGGA,082008.00,0127.5163528,N,10349.0226954,E,5,06,1.2,18.5255,M,3.7095,M,2.0,0000*4E
$GPGST,082008.00,0.066,0.386,0.300,15.009,0.381,0.306,0.873*65
$GPGGA,082009.00,0127.5160902,N,10349.0225553,E,4,10,0.9,15.6484,M,3.7095,M,2.0,0000*48
$GPGST,082009.00,0.086,0.007,0.005,34.125,0.006,0.006,0.015*6D
$GPGGA,082010.00,0127.5160879,N,10349.0225538,E,4,10,0.9,15.6552,M,3.7095,M,2.0,0000*4A
$GPGST,082010.00,0.079,0.007,0.005,34.710,0.006,0.006,0.016*66
$GPGGA,082011.00,0127.5160869,N,10349.0225551,E,4,11,0.8,15.6698,M,3.7095,M,2.0,0000*40
$GPGST,082011.00,0.117,0.006,0.005,44.534,0.006,0.006,0.013*69
$GPGGA,082012.00,0127.5160878,N,10349.0225529,E,4,11,0.8,15.6675,M,3.7095,M,2.0,0000*4F
$GPGST,082012.00,0.154,0.006,0.005,44.721,0.006,0.006,0.013*6B
$GPGGA,082013.00,0127.5160876,N,10349.0225538,E,4,11,0.8,15.6671,M,3.7095,M,2.0,0000*44
$GPGST,082013.00,0.148,0.006,0.004,44.654,0.005,0.005,0.013*65
$GPGGA,082014.00,0127.5160870,N,10349.0225538,E,4,11,0.8,15.6666,M,3.7095,M,2.0,0000*43
$GPGST,082014.00,0.148,0.006,0.005,45.389,0.006,0.006,0.013*67
$GPGGA,082015.00,0127.5160861,N,10349.0225520,E,4,11,0.8,15.6559,M,3.7095,M,2.0,0000*44
$GPGST,082015.00,0.103,0.006,0.004,45.300,0.005,0.005,0.012*68
$GPGGA,082016.00,0127.5160993,N,10349.0225567,E,4,16,0.8,15.7081,M,3.7095,M,2.0,0000*4E
$GPGST,082016.00,0.057,0.005,0.004,57.895,0.004,0.005,0.009*67
$GPGGA,082017.00,0127.5160993,N,10349.0225567,E,4,17,0.8,15.7072,M,3.7095,M,2.0,0000*42
$GPGST,082017.00,0.074,0.005,0.004,57.491,0.004,0.005,0.010*67
$GPGGA,082018.00,0127.5160982,N,10349.0225559,E,4,16,0.8,15.7095,M,3.7095,M,2.0,0000*48
$GPGST,082018.00,0.090,0.006,0.004,57.840,0.004,0.005,0.010*61
$GPGGA,082019.00,0127.5160985,N,10349.0225569,E,4,17,0.8,15.7085,M,3.7095,M,2.0,0000*4D
$GPGST,082019.00,0.116,0.005,0.004,57.408,0.004,0.005,0.010*6C
$GPGGA,082020.00,0127.5160986,N,10349.0225567,E,4,19,0.7,15.7044,M,3.7095,M,2.0,0000*46
$GPGST,082020.00,0.076,0.005,0.004,60.555,0.004,0.005,0.009*64
$GPGGA,082021.00,0127.5160930,N,10349.0225552,E,4,18,0.7,15.6738,M,3.7095,M,2.0,0000*40
$GPGST,082021.00,0.134,0.005,0.004,63.742,0.004,0.005,0.009*65
$GPGGA,082022.00,0127.5160891,N,10349.0225538,E,4,18,0.7,15.6634,M,3.7095,M,1.0,0000*4B
$GPGST,082022.00,0.099,0.005,0.004,60.321,0.004,0.005,0.010*6A
$GPGGA,082023.00,0127.5160987,N,10349.0225561,E,4,18,0.7,15.6950,M,3.7095,M,2.0,0000*4E
$GPGST,082023.00,0.142,0.005,0.004,67.502,0.004,0.005,0.009*64
$GPGGA,082024.00,0127.5160974,N,10349.0225547,E,4,19,0.7,15.6926,M,3.7095,M,2.0,0000*41
$GPGST,082024.00,0.116,0.005,0.004,65.911,0.004,0.005,0.009*6E
$GPGGA,082025.00,0127.5160960,N,10349.0225556,E,4,23,0.6,15.6793,M,3.7095,M,2.0,0000*4D
$GPGST,082025.00,0.087,0.004,0.003,58.071,0.004,0.004,0.008*61
$GPGGA,082026.00,0127.5160955,N,10349.0225559,E,4,23,0.6,15.6781,M,3.7095,M,2.0,0000*44
$GPGST,082026.00,0.080,0.004,0.004,54.792,0.004,0.004,0.009*65
$GPGGA,082027.00,0127.5160974,N,10349.0225537,E,4,22,0.6,15.6878,M,3.7095,M,2.0,0000*46
$GPGST,082027.00,0.100,0.004,0.004,54.691,0.004,0.004,0.008*6E
$GPGGA,082028.00,0127.5160978,N,10349.0225551,E,4,23,0.6,15.6940,M,3.7095,M,2.0,0000*4E
$GPGST,082028.00,0.089,0.004,0.004,54.571,0.004,0.004,0.008*6C
$GPGGA,082029.00,0127.5160936,N,10349.0225551,E,4,22,0.6,15.6696,M,3.7095,M,2.0,0000*40
$GPGST,082029.00,0.110,0.004,0.004,52.675,0.004,0.004,0.009*6C
$GPGGA,082030.00,0127.5160935,N,10349.0225544,E,4,22,0.6,15.6724,M,3.7095,M,2.0,0000*47
$GPGST,082030.00,0.127,0.004,0.004,49.131,0.004,0.004,0.009*6D
$GPGGA,082031.00,0127.5160934,N,10349.0225550,E,4,22,0.6,15.6691,M,3.7095,M,2.0,0000*4D
$GPGST,082031.00,0.163,0.004,0.004,49.136,0.004,0.004,0.009*6B
$GPGGA,082032.00,0127.5160926,N,10349.0225544,E,4,22,0.6,15.6739,M,3.7095,M,2.0,0000*4B
$GPGST,082032.00,0.170,0.004,0.004,49.113,0.004,0.004,0.009*6D
$GPGGA,082033.00,0127.5160942,N,10349.0225529,E,4,22,0.6,15.6731,M,3.7095,M,2.0,0000*4B
$GPGST,082033.00,0.109,0.004,0.004,50.124,0.004,0.004,0.009*6E
$GPGGA,082034.00,0127.5160934,N,10349.0225533,E,4,23,0.6,15.6770,M,3.7095,M,2.0,0000*42
$GPGST,082034.00,0.115,0.004,0.004,50.284,0.004,0.004,0.009*6D
$GPGGA,082035.00,0127.5160950,N,10349.0225552,E,4,23,0.6,15.6764,M,3.7095,M,2.0,0000*43
$GPGST,082035.00,0.104,0.004,0.004,50.797,0.004,0.004,0.009*6B
$GPGGA,082036.00,0127.5160931,N,10349.0225549,E,4,23,0.6,15.6780,M,3.7095,M,2.0,0000*47
$GPGST,082036.00,0.129,0.004,0.004,53.786,0.004,0.004,0.008*65
$GPGGA,082037.00,0127.5160968,N,10349.0225541,E,4,23,0.6,15.6861,M,3.7095,M,2.0,0000*42
$GPGST,082037.00,0.125,0.004,0.004,55.788,0.004,0.004,0.009*61
$GPGGA,082038.00,0127.5160940,N,10349.0225542,E,4,23,0.6,15.6960,M,3.7095,M,2.0,0000*44
$GPGST,082038.00,0.129,0.005,0.004,55.222,0.004,0.004,0.009*66
$GPGGA,082039.00,0127.5160931,N,10349.0225528,E,4,28,0.5,15.6932,M,3.7095,M,2.0,0000*40
$GPGST,082039.00,0.134,0.004,0.003,61.690,0.003,0.004,0.008*61
$GPGGA,082040.00,0127.5160920,N,10349.0225515,E,4,29,0.5,15.6934,M,3.7095,M,2.0,0000*47
$GPGST,082040.00,0.129,0.004,0.003,58.812,0.003,0.004,0.008*6D
$GPGGA,082041.00,0127.5160909,N,10349.0225526,E,4,29,0.5,15.6927,M,3.7095,M,1.0,0000*4C
$GPGST,082041.00,0.137,0.004,0.003,58.492,0.003,0.003,0.007*6F
$GPGGA,082042.00,0127.5160924,N,10349.0225524,E,4,29,0.5,15.6973,M,3.7095,M,2.0,0000*40
$GPGST,082042.00,0.101,0.004,0.003,59.012,0.003,0.003,0.008*6B
$GPGGA,082043.00,0127.5160927,N,10349.0225531,E,4,29,0.5,15.6870,M,3.7095,M,2.0,0000*44
$GPGST,082043.00,0.146,0.004,0.003,58.260,0.003,0.004,0.008*68
$GPGGA,082044.00,0127.5160934,N,10349.0225526,E,4,29,0.5,15.6871,M,3.7095,M,2.0,0000*46
$GPGST,082044.00,0.160,0.004,0.003,59.121,0.003,0.003,0.008*6B
$GPGGA,082045.00,0127.5160943,N,10349.0225527,E,4,29,0.5,15.6843,M,3.7095,M,2.0,0000*47
$GPGST,082045.00,0.185,0.004,0.003,59.517,0.003,0.003,0.008*60
$GPGGA,082046.00,0127.5160935,N,10349.0225530,E,4,29,0.5,15.6830,M,3.7095,M,2.0,0000*47
$GPGST,082046.00,0.250,0.004,0.003,57.999,0.003,0.004,0.008*6B
$GPGGA,082047.00,0127.5160929,N,10349.0225534,E,4,29,0.5,15.6792,M,3.7095,M,2.0,0000*48
$GPGST,082047.00,0.108,0.004,0.003,58.944,0.003,0.004,0.008*6B
$GPGGA,082048.00,0127.5160933,N,10349.0225539,E,4,29,0.5,15.6814,M,3.7095,M,2.0,0000*40
$GPGST,082048.00,0.097,0.004,0.003,56.114,0.003,0.004,0.008*60
$GPGGA,082049.00,0127.5160943,N,10349.0225539,E,4,29,0.5,15.6816,M,3.7095,M,2.0,0000*44
$GPGST,082049.00,0.102,0.004,0.003,56.679,0.003,0.004,0.008*60
$GPGGA,082050.00,0127.5160916,N,10349.0225562,E,4,27,0.5,15.6746,M,3.7095,M,2.0,0000*46
$GPGST,082050.00,0.142,0.004,0.003,44.148,0.004,0.004,0.008*6D
$GPGGA,082051.00,0127.5160914,N,10349.0225550,E,4,26,0.5,15.6872,M,3.7095,M,2.0,0000*4D
$GPGST,082051.00,0.107,0.004,0.003,39.530,0.004,0.004,0.008*6C
$GPGGA,082052.00,0127.5160924,N,10349.0225529,E,4,26,0.6,15.6871,M,3.7095,M,2.0,0000*43
$GPGST,082052.00,0.129,0.004,0.004,34.919,0.004,0.004,0.009*6F
$GPGGA,082053.00,0127.5160919,N,10349.0225548,E,4,27,0.5,15.6796,M,3.7095,M,2.0,0000*4F
$GPGST,082053.00,0.150,0.004,0.003,41.107,0.004,0.003,0.008*64
$GPGGA,082054.00,0127.5160941,N,10349.0225545,E,4,28,0.5,15.6697,M,3.7095,M,2.0,0000*47
$GPGST,082054.00,0.096,0.004,0.003,36.408,0.004,0.004,0.008*65
$GPGGA,082055.00,0127.5160950,N,10349.0225532,E,4,27,0.5,15.6678,M,3.7095,M,2.0,0000*48
$GPGST,082055.00,0.129,0.004,0.003,30.616,0.004,0.003,0.008*6D
$GPGGA,082056.00,0127.5160936,N,10349.0225523,E,4,27,0.5,15.6699,M,3.7095,M,2.0,0000*44
$GPGST,082056.00,0.097,0.004,0.004,33.575,0.004,0.004,0.009*6E
$GPGGA,082057.00,0127.5160940,N,10349.0225540,E,4,27,0.5,15.6695,M,3.7095,M,2.0,0000*4D
$GPGST,082057.00,0.130,0.004,0.003,32.658,0.004,0.004,0.008*68
$GPGGA,082058.00,0127.5160935,N,10349.0225536,E,4,26,0.6,15.6742,M,3.7095,M,2.0,0000*48
$GPGST,082058.00,0.095,0.004,0.004,29.550,0.004,0.004,0.009*6E
$GPGGA,082059.00,0127.5160930,N,10349.0225532,E,4,26,0.6,15.6731,M,3.7095,M,2.0,0000*4C
$GPGST,082059.00,0.103,0.004,0.003,28.649,0.004,0.004,0.009*6C
$GPGGA,082100.00,0127.5160933,N,10349.0225541,E,4,26,0.6,15.6774,M,3.7095,M,2.0,0000*47
$GPGST,082100.00,0.113,0.004,0.003,29.240,0.004,0.004,0.009*6C
$GPGGA,082101.00,0127.5160937,N,10349.0225541,E,4,26,0.6,15.6773,M,3.7095,M,2.0,0000*45
$GPGST,082101.00,0.114,0.004,0.003,29.769,0.004,0.004,0.009*64
$GPGGA,082102.00,0127.5160943,N,10349.0225538,E,4,26,0.6,15.6768,M,3.7095,M,2.0,0000*41
$GPGST,082102.00,0.152,0.004,0.004,30.199,0.004,0.004,0.009*63
$GPGGA,082103.00,0127.5160945,N,10349.0225534,E,4,26,0.6,15.6712,M,3.7095,M,2.0,0000*47
$GPGST,082103.00,0.102,0.004,0.004,32.282,0.004,0.004,0.009*6C
$GPGGA,082104.00,0127.5160939,N,10349.0225532,E,4,26,0.6,15.6658,M,3.7095,M,2.0,0000*42
$GPGST,082104.00,0.126,0.004,0.004,33.379,0.004,0.004,0.009*69
$GPGGA,082105.00,0127.5160902,N,10349.0225520,E,4,23,0.6,15.6630,M,3.7095,M,2.0,0000*43
$GPGST,082105.00,0.106,0.004,0.004,30.107,0.004,0.004,0.009*62
$GPGGA,082106.00,0127.5160927,N,10349.0225519,E,4,24,0.6,15.6745,M,3.7095,M,2.0,0000*49
$GPGST,082106.00,0.214,0.004,0.004,20.023,0.004,0.004,0.010*6F
$GPGGA,082107.00,0127.5160945,N,10349.0225526,E,4,26,0.6,15.6923,M,3.7095,M,2.0,0000*4C
$GPGST,082107.00,0.174,0.004,0.004,10.316,0.004,0.004,0.009*65
$GPGGA,082108.00,0127.5160934,N,10349.0225517,E,4,27,0.5,15.6895,M,3.7095,M,2.0,0000*49
$GPGST,082108.00,0.187,0.004,0.004,24.834,0.004,0.004,0.009*6A
$GPGGA,082109.00,0127.5160970,N,10349.0225533,E,4,22,0.6,15.6759,M,3.7095,M,2.0,0000*47
$GPGST,082109.00,0.116,0.005,0.004,58.751,0.004,0.005,0.009*64
$GPGGA,082110.00,0127.5160950,N,10349.0225527,E,4,27,0.5,15.6704,M,3.7095,M,2.0,0000*46
$GPGST,082110.00,0.150,0.004,0.004,59.299,0.004,0.004,0.009*6E
$GPGGA,082111.00,0127.5160959,N,10349.0225505,E,4,27,0.5,15.6719,M,3.7095,M,2.0,0000*42
$GPGST,082111.00,0.144,0.004,0.004,51.849,0.004,0.004,0.009*65
$GPGGA,082112.00,0127.5160976,N,10349.0225556,E,4,23,0.6,15.6692,M,3.7095,M,2.0,0000*4F
$GPGST,082112.00,0.117,0.005,0.004,292.532,0.004,0.005,0.010*54
$GPGGA,082113.00,0127.5160966,N,10349.0225560,E,4,25,0.6,15.6677,M,3.7095,M,2.0,0000*47
$GPGST,082113.00,0.184,0.004,0.004,19.679,0.004,0.004,0.010*62
$GPGGA,082114.00,0127.5160932,N,10349.0225546,E,4,26,0.6,15.6695,M,3.7095,M,2.0,0000*4A
$GPGST,082114.00,0.225,0.005,0.004,11.497,0.005,0.004,0.011*66
$GPGGA,082115.00,0127.5160947,N,10349.0225530,E,4,24,0.6,15.6810,M,3.7095,M,2.0,0000*49
$GPGST,082115.00,0.222,0.005,0.004,33.383,0.005,0.004,0.011*62
$GPGGA,082116.00,0127.5160943,N,10349.0225516,E,4,24,0.6,15.6674,M,3.7095,M,2.0,0000*46
$GPGST,082116.00,0.128,0.005,0.004,36.238,0.005,0.004,0.011*6C
$GPGGA,082117.00,0127.5160945,N,10349.0225516,E,4,25,0.6,15.6641,M,3.7095,M,2.0,0000*46
$GPGST,082117.00,0.155,0.005,0.004,35.934,0.004,0.004,0.010*63
$GPGGA,082118.00,0127.5160936,N,10349.0225527,E,4,25,0.6,15.6703,M,3.7095,M,2.0,0000*48
$GPGST,082118.00,0.221,0.004,0.004,33.458,0.004,0.004,0.010*6C
$GPGGA,082119.00,0127.5160935,N,10349.0225537,E,4,25,0.6,15.6731,M,3.7095,M,2.0,0000*4A
$GPGST,082119.00,0.108,0.004,0.004,30.766,0.004,0.004,0.010*68
$GPGGA,082120.00,0127.5160928,N,10349.0225544,E,4,25,0.6,15.6811,M,3.7095,M,2.0,0000*45
$GPGST,082120.00,0.100,0.004,0.004,30.380,0.004,0.004,0.009*6E
$GPGGA,082121.00,0127.5160939,N,10349.0225551,E,4,25,0.6,15.6778,M,3.7095,M,2.0,0000*40
$GPGST,082121.00,0.125,0.004,0.004,29.126,0.004,0.004,0.009*6E
$GPGGA,082122.00,0127.5160934,N,10349.0225542,E,4,26,0.6,15.6749,M,3.7095,M,2.0,0000*4D
$GPGST,082122.00,0.157,0.004,0.004,28.400,0.004,0.004,0.009*68
$GPGGA,082123.00,0127.5160933,N,10349.0225525,E,4,26,0.6,15.6715,M,3.7095,M,2.0,0000*43
$GPGST,082123.00,0.124,0.004,0.004,28.756,0.004,0.004,0.009*6D
$GPGGA,082124.00,0127.5160923,N,10349.0225519,E,4,26,0.6,15.6744,M,3.7095,M,2.0,0000*4E
$GPGST,082124.00,0.119,0.004,0.004,29.740,0.004,0.004,0.009*62
$GPGGA,082125.00,0127.5160926,N,10349.0225520,E,4,26,0.6,15.6706,M,3.7095,M,2.0,0000*46
$GPGST,082125.00,0.130,0.004,0.003,28.645,0.004,0.004,0.009*6A
$GPGGA,082126.00,0127.5160925,N,10349.0225540,E,4,26,0.6,15.6741,M,3.7095,M,2.0,0000*43
$GPGST,082126.00,0.143,0.004,0.004,27.568,0.004,0.004,0.009*69
$GPGGA,082127.00,0127.5160939,N,10349.0225549,E,4,26,0.6,15.6799,M,3.7095,M,2.0,0000*43
$GPGST,082127.00,0.166,0.004,0.003,26.647,0.004,0.004,0.009*67
$GPGGA,082128.00,0127.5160959,N,10349.0225547,E,4,26,0.6,15.6728,M,3.7095,M,2.0,0000*4E
$GPGST,082128.00,0.111,0.004,0.003,25.845,0.004,0.004,0.009*67
$GPGGA,082129.00,0127.5160944,N,10349.0225570,E,4,26,0.6,15.6741,M,3.7095,M,2.0,0000*48
$GPGST,082129.00,0.092,0.004,0.003,26.640,0.004,0.004,0.009*64
$GPGGA,082130.00,0127.5160921,N,10349.0225557,E,4,26,0.6,15.6856,M,3.7095,M,2.0,0000*4F
$GPGST,082130.00,0.101,0.004,0.003,26.366,0.004,0.003,0.009*61
$GPGGA,082131.00,0127.5160921,N,10349.0225531,E,4,26,0.6,15.6814,M,3.7095,M,2.0,0000*48
$GPGST,082131.00,0.089,0.004,0.003,25.207,0.004,0.003,0.009*64
$GPGGA,082132.00,0127.5160929,N,10349.0225542,E,4,27,0.5,15.6827,M,3.7095,M,2.0,0000*45
$GPGST,082132.00,0.137,0.004,0.003,26.499,0.004,0.004,0.009*66
$GPGGA,082133.00,0127.5160952,N,10349.0225547,E,4,26,0.6,15.6773,M,3.7095,M,2.0,0000*41
$GPGST,082133.00,0.114,0.004,0.003,26.487,0.004,0.004,0.009*69
$GPGGA,082134.00,0127.5160934,N,10349.0225544,E,4,28,0.5,15.6658,M,3.7095,M,2.0,0000*40
$GPGST,082134.00,0.101,0.004,0.003,27.440,0.004,0.004,0.009*60
$GPGGA,082135.00,0127.5160945,N,10349.0225542,E,4,27,0.6,15.6736,M,3.7095,M,2.0,0000*44
$GPGST,082135.00,0.105,0.004,0.003,34.196,0.004,0.003,0.008*6F
$GPGGA,082136.00,0127.5160948,N,10349.0225550,E,4,27,0.6,15.6823,M,3.7095,M,2.0,0000*42
$GPGST,082136.00,0.142,0.004,0.003,28.839,0.004,0.003,0.008*6E
$GPGGA,082137.00,0127.5160931,N,10349.0225546,E,4,26,0.6,15.6810,M,3.7095,M,2.0,0000*4B
$GPGST,082137.00,0.099,0.004,0.003,29.391,0.004,0.003,0.009*61
$GPGGA,082138.00,0127.5160936,N,10349.0225534,E,4,26,0.6,15.6773,M,3.7095,M,2.0,0000*4C
$GPGST,082138.00,0.095,0.004,0.003,29.521,0.004,0.003,0.009*6F
$GPGGA,082139.00,0127.5160939,N,10349.0225533,E,4,26,0.6,15.6703,M,3.7095,M,2.0,0000*42
$GPGST,082139.00,0.092,0.004,0.003,29.242,0.004,0.003,0.009*6B
$GPGGA,082140.00,0127.5160936,N,10349.0225527,E,4,26,0.6,15.6722,M,3.7095,M,2.0,0000*45
$GPGST,082140.00,0.105,0.004,0.003,29.886,0.004,0.003,0.009*68
$GPGGA,082141.00,0127.5160938,N,10349.0225530,E,4,27,0.6,15.6816,M,3.7095,M,2.0,0000*45
$GPGST,082141.00,0.167,0.004,0.003,29.844,0.004,0.003,0.009*63
$GPGGA,082142.00,0127.5160936,N,10349.0225545,E,4,26,0.6,15.6796,M,3.7095,M,2.0,0000*4C
$GPGST,082142.00,0.088,0.004,0.003,29.797,0.004,0.003,0.009*61
$GPGGA,082143.00,0127.5160935,N,10349.0225544,E,4,26,0.6,15.6780,M,3.7095,M,2.0,0000*48
$GPGST,082143.00,0.100,0.004,0.003,29.917,0.004,0.003,0.009*67
$GPGGA,082144.00,0127.5160934,N,10349.0225536,E,4,27,0.5,15.6844,M,3.7095,M,1.0,0000*4D
$GPGST,082144.00,0.150,0.004,0.003,29.819,0.004,0.003,0.008*6B
$GPGGA,082145.00,0127.5160926,N,10349.0225525,E,4,28,0.5,15.6837,M,3.7095,M,2.0,0000*45
$GPGST,082145.00,0.124,0.004,0.003,32.670,0.004,0.003,0.008*62
$GPGGA,082146.00,0127.5160946,N,10349.0225519,E,4,28,0.5,15.6780,M,3.7095,M,2.0,0000*4C
$GPGST,082146.00,0.118,0.004,0.003,31.248,0.004,0.003,0.008*62
$GPGGA,082147.00,0127.5160936,N,10349.0225510,E,4,27,0.6,15.6776,M,3.7095,M,2.0,0000*46
$GPGST,082147.00,0.069,0.004,0.003,29.568,0.004,0.003,0.008*68
$GPGGA,082148.00,0127.5160934,N,10349.0225522,E,4,28,0.5,15.6805,M,3.7095,M,2.0,0000*4D
$GPGST,082148.00,0.051,0.004,0.003,15.039,0.004,0.003,0.008*62
$GPGGA,082149.00,0127.5160929,N,10349.0225528,E,4,28,0.5,15.6815,M,3.7095,M,2.0,0000*4B
$GPGST,082149.00,0.069,0.004,0.003,15.656,0.004,0.003,0.008*67
$GPGGA,082150.00,0127.5160937,N,10349.0225541,E,4,27,0.6,15.6770,M,3.7095,M,2.0,0000*43
$GPGST,082150.00,0.098,0.004,0.003,19.380,0.004,0.003,0.008*63
$GPGGA,082151.00,0127.5160941,N,10349.0225556,E,4,28,0.5,15.6856,M,3.7095,M,2.0,0000*42
$GPGST,082151.00,0.122,0.004,0.003,24.756,0.004,0.003,0.008*63
$GPGGA,082152.00,0127.5160955,N,10349.0225566,E,4,29,0.5,15.6751,M,3.7095,M,2.0,0000*4E
$GPGST,082152.00,0.130,0.004,0.003,12.392,0.004,0.003,0.008*6A
$GPGGA,082153.00,0127.5160941,N,10349.0225551,E,4,28,0.5,15.6825,M,3.7095,M,2.0,0000*43
$GPGST,082153.00,0.135,0.004,0.003,11.878,0.004,0.003,0.008*62
$GPGGA,082154.00,0127.5160934,N,10349.0225546,E,4,28,0.5,15.6815,M,3.7095,M,2.0,0000*43
$GPGST,082154.00,0.152,0.004,0.003,13.947,0.004,0.003,0.008*6B
$GPGGA,082155.00,0127.5160940,N,10349.0225537,E,4,28,0.5,15.6837,M,3.7095,M,2.0,0000*47
$GPGST,082155.00,0.179,0.004,0.003,14.099,0.004,0.003,0.008*6E
$GPGGA,082156.00,0127.5160949,N,10349.0225552,E,4,28,0.5,15.6809,M,3.7095,M,2.0,0000*43
$GPGST,082156.00,0.154,0.004,0.003,14.366,0.004,0.003,0.008*61
$GPGGA,082157.00,0127.5160961,N,10349.0225542,E,4,28,0.5,15.6736,M,3.7095,M,2.0,0000*4A
$GPGST,082157.00,0.150,0.004,0.003,15.464,0.004,0.003,0.008*60
$GPGGA,082158.00,0127.5160958,N,10349.0225554,E,4,28,0.5,15.6724,M,3.7095,M,2.0,0000*4B
$GPGST,082158.00,0.118,0.004,0.003,350.483,0.004,0.003,0.009*59
$GPGGA,082159.00,0127.5160915,N,10349.0225513,E,4,22,0.6,15.6801,M,3.7095,M,2.0,0000*41
$GPGST,082159.00,0.116,0.004,0.004,346.639,0.004,0.004,0.009*52
$GPGGA,082200.00,0127.5160910,N,10349.0225549,E,4,23,0.6,15.6773,M,3.7095,M,2.0,0000*4F
$GPGST,082200.00,0.196,0.004,0.004,4.379,0.004,0.004,0.008*50
$GPGGA,082201.00,0127.5160963,N,10349.0225534,E,4,28,0.5,15.6745,M,3.7095,M,2.0,0000*4D
$GPGST,082201.00,0.113,0.005,0.004,355.060,0.005,0.004,0.009*51
$GPGGA,082202.00,0127.5160970,N,10349.0225546,E,4,27,0.5,15.6769,M,3.7095,M,2.0,0000*48
$GPGST,082202.00,0.168,0.004,0.003,4.354,0.004,0.003,0.009*5D
$GPGGA,082203.00,0127.5160979,N,10349.0225551,E,4,25,0.6,15.6683,M,3.7095,M,2.0,0000*42
$GPGST,082203.00,0.141,0.004,0.004,355.773,0.004,0.004,0.009*51
$GPGGA,082204.00,0127.5160941,N,10349.0225538,E,4,21,0.7,15.6724,M,3.7095,M,2.0,0000*48
$GPGST,082204.00,0.141,0.005,0.004,318.063,0.004,0.004,0.010*50
$GPGGA,082205.00,0127.5160977,N,10349.0225498,E,4,26,0.6,15.6682,M,3.7095,M,2.0,0000*4C
$GPGST,082205.00,0.159,0.004,0.004,5.301,0.004,0.004,0.009*59
$GPGGA,082206.00,0127.5160944,N,10349.0225524,E,4,23,0.6,15.6620,M,3.7095,M,2.0,0000*44
$GPGST,082206.00,0.156,0.004,0.004,311.513,0.004,0.004,0.010*5E
$GPGGA,082207.00,0127.5160944,N,10349.0225497,E,4,24,0.6,15.6470,M,3.7095,M,2.0,0000*4C
$GPGST,082207.00,0.195,0.005,0.004,321.062,0.004,0.004,0.010*51
$GPGGA,082208.00,0127.5160956,N,10349.0225529,E,4,26,0.6,15.6658,M,3.7095,M,2.0,0000*4E
$GPGST,082208.00,0.133,0.005,0.004,298.713,0.004,0.004,0.010*50
$GPGGA,082209.00,0127.5160929,N,10349.0225548,E,4,25,0.6,15.6604,M,3.7095,M,2.0,0000*4A
$GPGST,082209.00,0.093,0.004,0.004,3.330,0.004,0.004,0.010*5E
$GPGGA,082210.00,0127.5160875,N,10349.0225543,E,4,25,0.6,15.6812,M,3.7095,M,2.0,0000*48
$GPGST,082210.00,0.160,0.004,0.004,3.694,0.004,0.004,0.009*58
$GPGGA,082211.00,0127.5160973,N,10349.0225523,E,4,23,0.6,15.6628,M,3.7095,M,2.0,0000*49
$GPGST,082211.00,0.167,0.004,0.004,340.108,0.004,0.004,0.010*50
$GPGGA,082212.00,0127.5161007,N,10349.0225461,E,4,22,0.6,15.6379,M,3.7095,M,2.0,0000*46
$GPGST,082212.00,0.306,0.005,0.004,332.013,0.005,0.004,0.011*59
$GPGGA,082213.00,0127.5160958,N,10349.0225527,E,4,19,0.7,15.6675,M,3.7095,M,2.0,0000*46
$GPGST,082213.00,0.175,0.005,0.004,324.605,0.005,0.005,0.011*59
$GPGGA,082214.00,0127.5161008,N,10349.0225540,E,4,20,0.7,15.6530,M,3.7095,M,2.0,0000*45
$GPGST,082214.00,0.199,0.006,0.005,315.930,0.006,0.006,0.013*57
$GPGGA,082215.00,0127.5160947,N,10349.0225553,E,4,21,0.7,15.6661,M,3.7095,M,2.0,0000*43
$GPGST,082215.00,0.143,0.006,0.005,331.660,0.006,0.005,0.013*5E
$GPGGA,082216.00,0127.5160906,N,10349.0225581,E,4,19,0.8,15.6860,M,3.7095,M,2.0,0000*41
$GPGST,082216.00,0.092,0.005,0.005,283.429,0.005,0.005,0.013*57
$GPGGA,082217.00,0127.5160854,N,10349.0225625,E,4,21,0.7,15.6806,M,3.7095,M,1.0,0000*4C
$GPGST,082217.00,0.117,0.005,0.004,304.920,0.005,0.005,0.011*53
$GPGGA,082218.00,0127.5161003,N,10349.0225546,E,4,20,0.7,15.6952,M,3.7095,M,2.0,0000*4C
$GPGST,082218.00,0.160,0.005,0.004,357.595,0.005,0.004,0.011*59
$GPGGA,082219.00,0127.5160980,N,10349.0225540,E,4,28,0.5,15.6889,M,3.7095,M,2.0,0000*45
$GPGST,082219.00,0.271,0.004,0.004,11.451,0.004,0.004,0.010*62
$GPGGA,082220.00,0127.5160967,N,10349.0225523,E,4,27,0.5,15.6878,M,3.7095,M,2.0,0000*42
$GPGST,082220.00,0.279,0.004,0.004,16.233,0.004,0.004,0.009*6D
$GPGGA,082221.00,0127.5160938,N,10349.0225540,E,4,28,0.5,15.6859,M,3.7095,M,2.0,0000*40
$GPGST,082221.00,0.326,0.004,0.004,16.107,0.004,0.004,0.009*63
$GPGGA,082222.00,0127.5160942,N,10349.0225510,E,4,28,0.5,15.6930,M,3.7095,M,2.0,0000*45
$GPGST,082222.00,0.324,0.004,0.004,350.828,0.004,0.004,0.009*57
$GPGGA,082223.00,0127.5160969,N,10349.0225515,E,4,29,0.5,15.6837,M,3.7095,M,2.0,0000*4F
$GPGST,082223.00,0.278,0.004,0.004,347.595,0.004,0.004,0.009*53
$GPGGA,082224.00,0127.5160982,N,10349.0225511,E,4,26,0.5,15.6715,M,3.7095,M,2.0,0000*49
$GPGST,082224.00,0.291,0.004,0.004,40.085,0.004,0.004,0.009*63
$GPGGA,082225.00,0127.5160967,N,10349.0225571,E,4,26,0.5,15.6702,M,3.7095,M,2.0,0000*43
$GPGST,082225.00,0.123,0.004,0.004,4.998,0.004,0.004,0.009*5D
$GPGGA,082226.00,0127.5160968,N,10349.0225523,E,4,21,0.6,15.6767,M,3.7095,M,2.0,0000*4F
$GPGST,082226.00,0.146,0.008,0.007,82.539,0.007,0.008,0.015*69
$GPGGA,082227.00,0127.5160913,N,10349.0225550,E,4,27,0.5,15.6859,M,3.7095,M,2.0,0000*41
$GPGST,082227.00,0.144,0.005,0.005,308.423,0.005,0.005,0.011*55
$GPGGA,082228.00,0127.5160933,N,10349.0225549,E,4,29,0.5,15.6928,M,3.7095,M,2.0,0000*4D
$GPGST,082228.00,0.171,0.004,0.004,318.623,0.004,0.004,0.010*5E
$GPGGA,082229.00,0127.5160926,N,10349.0225559,E,4,28,0.5,15.6888,M,3.7095,M,2.0,0000*43
$GPGST,082229.00,0.169,0.004,0.004,56.365,0.004,0.004,0.009*60
$GPGGA,082230.00,0127.5160929,N,10349.0225571,E,4,28,0.5,15.6841,M,3.7095,M,2.0,0000*4B
$GPGST,082230.00,0.163,0.004,0.004,298.706,0.004,0.004,0.009*53
$GPGGA,082231.00,0127.5160923,N,10349.0225564,E,4,28,0.5,15.6917,M,3.7095,M,2.0,0000*46
$GPGST,082231.00,0.106,0.004,0.004,293.569,0.004,0.004,0.009*51
$GPGGA,082232.00,0127.5160928,N,10349.0225561,E,4,28,0.5,15.6928,M,3.7095,M,2.0,0000*47
$GPGST,082232.00,0.115,0.004,0.004,290.831,0.004,0.004,0.008*52
$GPGGA,082233.00,0127.5160928,N,10349.0225563,E,4,29,0.5,15.6884,M,3.7095,M,2.0,0000*42
$GPGST,082233.00,0.116,0.004,0.004,290.578,0.004,0.004,0.008*50
$GPGGA,082234.00,0127.5160922,N,10349.0225564,E,4,30,0.5,15.6908,M,3.7095,M,2.0,0000*45
$GPGST,082234.00,0.136,0.004,0.004,288.688,0.004,0.004,0.008*50
$GPGGA,082235.00,0127.5160929,N,10349.0225547,E,4,29,0.5,15.6875,M,3.7095,M,2.0,0000*4D
$GPGST,082235.00,0.160,0.004,0.003,284.260,0.003,0.004,0.008*5C
$GPGGA,082236.00,0127.5160942,N,10349.0225542,E,4,28,0.6,15.6806,M,3.7095,M,2.0,0000*40
$GPGST,082236.00,0.172,0.004,0.004,300.114,0.004,0.004,0.008*51
$GPGGA,082237.00,0127.5160943,N,10349.0225544,E,4,26,0.6,15.6807,M,3.7095,M,2.0,0000*49
$GPGST,082237.00,0.159,0.004,0.004,310.265,0.004,0.004,0.009*5C
$GPGGA,082238.00,0127.5160900,N,10349.0225602,E,4,25,0.6,15.6798,M,3.7095,M,2.0,0000*4A
$GPGST,082238.00,0.236,0.005,0.004,309.861,0.004,0.004,0.010*56
$GPGGA,082239.00,0127.5160912,N,10349.0225577,E,4,25,0.6,15.6887,M,3.7095,M,2.0,0000*48
$GPGST,082239.00,0.190,0.004,0.004,302.372,0.004,0.004,0.009*53
$GPGGA,082240.00,0127.5160900,N,10349.0225572,E,4,27,0.6,15.6826,M,3.7095,M,2.0,0000*49
$GPGST,082240.00,0.191,0.004,0.004,290.174,0.004,0.004,0.009*52
$GPGGA,082241.00,0127.5160961,N,10349.0225617,E,4,27,0.6,15.6931,M,3.7095,M,2.0,0000*48
$GPGST,082241.00,0.177,0.004,0.004,281.053,0.004,0.004,0.009*5F
$GPGGA,082242.00,0127.5160964,N,10349.0225598,E,4,28,0.5,15.6847,M,3.7095,M,2.0,0000*46
$GPGST,082242.00,0.199,0.004,0.004,282.949,0.004,0.004,0.009*5D
$GPGGA,082243.00,0127.5160945,N,10349.0225596,E,4,20,0.7,15.6712,M,3.7095,M,2.0,0000*4F
$GPGST,082243.00,0.137,0.005,0.004,285.323,0.004,0.005,0.009*59
$GPGGA,082244.00,0127.5160951,N,10349.0225533,E,4,25,0.6,15.6801,M,3.7095,M,2.0,0000*4B
$GPGST,082244.00,0.160,0.005,0.004,295.708,0.004,0.005,0.010*58
$GPGGA,082245.00,0127.5160945,N,10349.0225545,E,4,25,0.6,15.6895,M,3.7095,M,2.0,0000*43
$GPGST,082245.00,0.136,0.004,0.004,280.371,0.004,0.004,0.009*5C
$GPGGA,082246.00,0127.5160949,N,10349.0225554,E,4,24,0.6,15.6968,M,3.7095,M,2.0,0000*4E
$GPGST,082246.00,0.099,0.005,0.004,85.709,0.004,0.005,0.009*67
$GPGGA,082247.00,0127.5160949,N,10349.0225512,E,4,27,0.6,15.6904,M,3.7095,M,2.0,0000*44
$GPGST,082247.00,0.107,0.005,0.004,89.198,0.004,0.005,0.009*62
$GPGGA,082248.00,0127.5160949,N,10349.0225534,E,4,30,0.5,15.6924,M,3.7095,M,2.0,0000*48
$GPGST,082248.00,0.114,0.004,0.004,286.870,0.004,0.004,0.008*5C
$GPGGA,082249.00,0127.5160945,N,10349.0225566,E,4,29,0.5,15.6926,M,3.7095,M,2.0,0000*48
$GPGST,082249.00,0.144,0.004,0.003,85.731,0.003,0.004,0.008*63
$GPGGA,082250.00,0127.5160942,N,10349.0225567,E,4,30,0.5,15.6944,M,3.7095,M,2.0,0000*4A
$GPGST,082250.00,0.128,0.004,0.003,77.093,0.003,0.004,0.008*63
$GPGGA,082251.00,0127.5160948,N,10349.0225546,E,4,30,0.5,15.6878,M,3.7095,M,2.0,0000*4C
$GPGST,082251.00,0.133,0.004,0.003,86.353,0.003,0.004,0.008*69
$GPGGA,082252.00,0127.5160939,N,10349.0225565,E,4,30,0.5,15.6868,M,3.7095,M,2.0,0000*49
$GPGST,082252.00,0.174,0.004,0.003,71.265,0.003,0.004,0.008*65
$GPGGA,082253.00,0127.5160903,N,10349.0225512,E,4,23,0.6,15.6910,M,3.7095,M,2.0,0000*4E
$GPGST,082253.00,0.181,0.004,0.004,61.821,0.004,0.004,0.009*64
$GPGGA,082254.00,0127.5160938,N,10349.0225542,E,4,24,0.6,15.6659,M,3.7095,M,2.0,0000*41
$GPGST,082254.00,0.144,0.004,0.004,38.618,0.004,0.004,0.009*62
$GPGGA,082255.00,0127.5160965,N,10349.0225563,E,4,29,0.5,15.6792,M,3.7095,M,2.0,0000*43
$GPGST,082255.00,0.195,0.004,0.004,25.862,0.004,0.004,0.009*60
$GPGGA,082256.00,0127.5160966,N,10349.0225562,E,4,28,0.5,15.6835,M,3.7095,M,2.0,0000*41
$GPGST,082256.00,0.194,0.004,0.004,8.555,0.004,0.004,0.008*55
$GPGGA,082257.00,0127.5160967,N,10349.0225572,E,4,29,0.5,15.6797,M,3.7095,M,2.0,0000*46
$GPGST,082257.00,0.178,0.004,0.004,15.155,0.004,0.004,0.008*6E
$GPGGA,082258.00,0127.5160938,N,10349.0225563,E,4,29,0.5,15.6800,M,3.7095,M,2.0,0000*42
$GPGST,082258.00,0.144,0.004,0.004,296.899,0.004,0.004,0.008*5E
$GPGGA,082259.00,0127.5160956,N,10349.0225562,E,4,29,0.5,15.6804,M,3.7095,M,2.0,0000*4E
$GPGST,082259.00,0.095,0.004,0.003,282.439,0.003,0.004,0.008*51
$GPGGA,082300.00,0127.5160959,N,10349.0225544,E,4,29,0.5,15.6725,M,3.7095,M,2.0,0000*44
$GPGST,082300.00,0.084,0.004,0.003,282.080,0.004,0.004,0.008*5D
$GPGGA,082301.00,0127.5160963,N,10349.0225551,E,4,29,0.5,15.6766,M,3.7095,M,2.0,0000*4F
$GPGST,082301.00,0.114,0.004,0.004,293.694,0.004,0.004,0.008*50
$GPGGA,082302.00,0127.5160961,N,10349.0225558,E,4,27,0.5,15.6802,M,3.7095,M,2.0,0000*44
$GPGST,082302.00,0.076,0.004,0.004,48.544,0.004,0.004,0.008*6C
$GPGGA,082303.00,0127.5160965,N,10349.0225570,E,4,28,0.5,15.6847,M,3.7095,M,2.0,0000*45
$GPGST,082303.00,0.077,0.004,0.004,28.055,0.004,0.004,0.008*6F
$GPGGA,082304.00,0127.5160950,N,10349.0225556,E,4,28,0.5,15.6819,M,3.7095,M,2.0,0000*4B
$GPGST,082304.00,0.109,0.004,0.004,359.876,0.004,0.004,0.009*5D
$GPGGA,082305.00,0127.5160972,N,10349.0225570,E,4,28,0.5,15.6695,M,3.7095,M,2.0,0000*44
$GPGST,082305.00,0.108,0.004,0.004,314.892,0.004,0.004,0.009*5E
$GPGGA,082306.00,0127.5160984,N,10349.0225551,E,4,28,0.5,15.6707,M,3.7095,M,2.0,0000*47
$GPGST,082306.00,0.106,0.004,0.004,328.080,0.004,0.004,0.008*56
$GPGGA,082307.00,0127.5160967,N,10349.0225537,E,4,28,0.5,15.6677,M,3.7095,M,2.0,0000*4D
$GPGST,082307.00,0.121,0.004,0.004,328.340,0.004,0.004,0.008*5D
$GPGGA,082308.00,0127.5160955,N,10349.0225552,E,4,26,0.6,15.6763,M,3.7095,M,2.0,0000*49
$GPGST,082308.00,0.087,0.004,0.004,25.976,0.004,0.004,0.009*6F
$GPGGA,082309.00,0127.5160946,N,10349.0225536,E,4,27,0.6,15.6741,M,3.7095,M,2.0,0000*49
$GPGST,082309.00,0.137,0.004,0.004,27.828,0.004,0.004,0.009*6C
$GPGGA,082310.00,0127.5160954,N,10349.0225539,E,4,26,0.6,15.6698,M,3.7095,M,2.0,0000*49
$GPGST,082310.00,0.131,0.004,0.004,31.810,0.004,0.004,0.009*6E
$GPGGA,082311.00,0127.5160946,N,10349.0225536,E,4,28,0.5,15.6710,M,3.7095,M,2.0,0000*48
$GPGST,082311.00,0.385,0.004,0.004,36.733,0.004,0.004,0.009*6B
$GPGGA,082312.00,0127.5160927,N,10349.0225547,E,4,27,0.6,15.6765,M,3.7095,M,2.0,0000*44
$GPGST,082312.00,0.118,0.004,0.004,38.475,0.004,0.004,0.009*61
$GPGGA,082313.00,0127.5160939,N,10349.0225568,E,4,27,0.6,15.6702,M,3.7095,M,2.0,0000*46
$GPGST,082313.00,0.123,0.004,0.004,39.647,0.004,0.004,0.009*6A
$GPGGA,082314.00,0127.5160965,N,10349.0225537,E,4,27,0.6,15.6688,M,3.7095,M,2.0,0000*41
$GPGST,082314.00,0.097,0.004,0.004,40.709,0.004,0.004,0.009*66
$GPGGA,082315.00,0127.5160964,N,10349.0225538,E,4,28,0.5,15.6711,M,3.7095,M,2.0,0000*43
$GPGST,082315.00,0.094,0.004,0.004,50.561,0.004,0.004,0.009*69
$GPGGA,082316.00,0127.5160945,N,10349.0225544,E,4,27,0.6,15.6748,M,3.7095,M,2.0,0000*48
$GPGST,082316.00,0.112,0.004,0.004,49.751,0.004,0.004,0.009*6C
$GPGGA,082317.00,0127.5160955,N,10349.0225544,E,4,27,0.6,15.6688,M,3.7095,M,2.0,0000*45
$GPGST,082317.00,0.110,0.004,0.004,52.669,0.004,0.004,0.009*6F
$GPGGA,082318.00,0127.5160960,N,10349.0225563,E,4,29,0.5,15.6749,M,3.7095,M,2.0,0000*48
$GPGST,082318.00,0.262,0.004,0.004,58.376,0.004,0.004,0.008*66
$GPGGA,082319.00,0127.5160957,N,10349.0225565,E,4,29,0.5,15.6732,M,3.7095,M,2.0,0000*47
$GPGST,082319.00,0.205,0.004,0.004,288.258,0.004,0.004,0.008*54
$GPGGA,082320.00,0127.5160953,N,10349.0225554,E,4,29,0.5,15.6750,M,3.7095,M,2.0,0000*4F
$GPGST,082320.00,0.125,0.004,0.003,281.218,0.003,0.004,0.008*52
$GPGGA,082321.00,0127.5160946,N,10349.0225552,E,4,29,0.5,15.6820,M,3.7095,M,2.0,0000*44
$GPGST,082321.00,0.145,0.004,0.003,279.945,0.003,0.004,0.008*51
$GPGGA,082322.00,0127.5160940,N,10349.0225555,E,4,29,0.5,15.6894,M,3.7095,M,2.0,0000*49
$GPGST,082322.00,0.132,0.004,0.003,274.094,0.003,0.004,0.008*5A
$GPGGA,082323.00,0127.5160945,N,10349.0225554,E,4,29,0.5,15.6808,M,3.7095,M,2.0,0000*49
$GPGST,082323.00,0.142,0.004,0.003,277.671,0.003,0.004,0.008*52
$GPGGA,082324.00,0127.5160946,N,10349.0225550,E,4,30,0.5,15.6786,M,3.7095,M,2.0,0000*48
$GPGST,082324.00,0.191,0.004,0.003,274.093,0.003,0.004,0.008*52
$GPGGA,082325.00,0127.5160942,N,10349.0225565,E,4,30,0.5,15.6844,M,3.7095,M,2.0,0000*4A
$GPGST,082325.00,0.155,0.004,0.003,85.468,0.003,0.004,0.008*67
$GPGGA,082326.00,0127.5160953,N,10349.0225559,E,4,29,0.5,15.6816,M,3.7095,M,2.0,0000*49
$GPGST,082326.00,0.138,0.004,0.003,282.204,0.003,0.004,0.008*56
$GPGGA,082327.00,0127.5160952,N,10349.0225559,E,4,29,0.5,15.6834,M,3.7095,M,2.0,0000*49
$GPGST,082327.00,0.157,0.004,0.003,85.898,0.003,0.004,0.008*64
$GPGGA,082328.00,0127.5160950,N,10349.0225555,E,4,29,0.5,15.6755,M,3.7095,M,2.0,0000*40
$GPGST,082328.00,0.137,0.004,0.003,79.986,0.003,0.004,0.008*60
$GPGGA,082329.00,0127.5160953,N,10349.0225551,E,4,29,0.5,15.6736,M,3.7095,M,2.0,0000*43
$GPGST,082329.00,0.170,0.004,0.003,79.761,0.003,0.004,0.008*65
$GPGGA,082330.00,0127.5160959,N,10349.0225557,E,4,29,0.5,15.6764,M,3.7095,M,2.0,0000*40
$GPGST,082330.00,0.173,0.004,0.003,79.967,0.003,0.004,0.008*66
$GPGGA,082331.00,0127.5160967,N,10349.0225566,E,4,29,0.5,15.6719,M,3.7095,M,2.0,0000*44
$GPGST,082331.00,0.094,0.004,0.003,81.025,0.003,0.004,0.008*67
$GPGGA,082332.00,0127.5160962,N,10349.0225556,E,4,29,0.5,15.6723,M,3.7095,M,2.0,0000*48
$GPGST,082332.00,0.146,0.004,0.003,76.912,0.003,0.004,0.008*6F
$GPGGA,082333.00,0127.5160947,N,10349.0225543,E,4,29,0.5,15.6733,M,3.7095,M,1.0,0000*48
$GPGST,082333.00,0.187,0.004,0.003,78.904,0.003,0.004,0.008*6A
$GPGGA,082334.00,0127.5160939,N,10349.0225545,E,4,28,0.5,15.6733,M,3.7095,M,2.0,0000*42
$GPGST,082334.00,0.178,0.004,0.003,72.929,0.003,0.004,0.008*68
$GPGGA,082335.00,0127.5160934,N,10349.0225544,E,4,28,0.5,15.6734,M,3.7095,M,2.0,0000*48
$GPGST,082335.00,0.141,0.004,0.003,70.508,0.003,0.004,0.008*6E
$GPGGA,082336.00,0127.5160935,N,10349.0225546,E,4,28,0.5,15.6757,M,3.7095,M,2.0,0000*4D
$GPGST,082336.00,0.129,0.004,0.003,74.596,0.003,0.004,0.008*60
$GPGGA,082337.00,0127.5160940,N,10349.0225550,E,4,29,0.5,15.6795,M,3.7095,M,2.0,0000*46
$GPGST,082337.00,0.102,0.004,0.003,79.897,0.003,0.004,0.008*69
$GPGGA,082338.00,0127.5160940,N,10349.0225549,E,4,29,0.5,15.6844,M,3.7095,M,2.0,0000*42
$GPGST,082338.00,0.107,0.004,0.003,82.937,0.003,0.004,0.008*6C
$GPGGA,082339.00,0127.5160945,N,10349.0225561,E,4,29,0.5,15.6779,M,3.7095,M,2.0,0000*4D
$GPGST,082339.00,0.155,0.004,0.003,82.767,0.003,0.004,0.008*61
$GPGGA,082340.00,0127.5160954,N,10349.0225565,E,4,29,0.5,15.6789,M,3.7095,M,2.0,0000*48
$GPGST,082340.00,0.125,0.004,0.003,83.033,0.003,0.004,0.008*6F
$GPGGA,082341.00,0127.5160954,N,10349.0225555,E,4,29,0.5,15.6749,M,3.7095,M,2.0,0000*46
$GPGST,082341.00,0.153,0.004,0.003,79.412,0.003,0.004,0.008*6D
$GPGGA,082342.00,0127.5160939,N,10349.0225543,E,4,29,0.5,15.6756,M,3.7095,M,2.0,0000*47
$GPGST,082342.00,0.170,0.004,0.004,79.084,0.004,0.004,0.008*64
$GPGGA,082343.00,0127.5160932,N,10349.0225541,E,4,29,0.5,15.6725,M,3.7095,M,2.0,0000*4B
$GPGST,082343.00,0.226,0.004,0.004,78.561,0.004,0.004,0.008*6A
$GPGGA,082344.00,0127.5160937,N,10349.0225536,E,4,28,0.5,15.6734,M,3.7095,M,2.0,0000*48
$GPGST,082344.00,0.285,0.004,0.004,76.299,0.004,0.004,0.009*6B
$GPGGA,082345.00,0127.5160933,N,10349.0225538,E,4,28,0.5,15.6698,M,3.7095,M,2.0,0000*44
$GPGST,082345.00,0.239,0.004,0.004,75.066,0.004,0.004,0.009*6C
$GPGGA,082346.00,0127.5160950,N,10349.0225542,E,4,28,0.5,15.6711,M,3.7095,M,2.0,0000*4F
$GPGST,082346.00,0.223,0.004,0.004,74.293,0.004,0.004,0.009*6D
$GPGGA,082347.00,0127.5160950,N,10349.0225552,E,4,28,0.5,15.6803,M,3.7095,M,2.0,0000*43
$GPGST,082347.00,0.192,0.004,0.004,76.555,0.004,0.004,0.009*6A
$GPGGA,082348.00,0127.5160960,N,10349.0225571,E,4,29,0.5,15.6821,M,3.7095,M,2.0,0000*4F
$GPGST,082348.00,0.124,0.004,0.004,79.916,0.004,0.004,0.009*6C
$GPGGA,082349.00,0127.5160947,N,10349.0225562,E,4,29,0.5,15.6778,M,3.7095,M,2.0,0000*4A
$GPGST,082349.00,0.200,0.004,0.004,84.480,0.004,0.004,0.008*69
$GPGGA,082350.00,0127.5160940,N,10349.0225541,E,4,29,0.5,15.6743,M,3.7095,M,2.0,0000*4C
$GPGST,082350.00,0.191,0.004,0.004,81.018,0.004,0.004,0.008*6A
$GPGGA,082351.00,0127.5160933,N,10349.0225534,E,4,29,0.5,15.6734,M,3.7095,M,2.0,0000*4B
$GPGST,082351.00,0.138,0.004,0.004,79.082,0.004,0.004,0.008*6C
$GPGGA,082352.00,0127.5160934,N,10349.0225542,E,4,29,0.5,15.6719,M,3.7095,M,2.0,0000*41
$GPGST,082352.00,0.130,0.004,0.004,75.947,0.004,0.004,0.008*6B
$GPGGA,082353.00,0127.5160938,N,10349.0225544,E,4,29,0.5,15.6694,M,3.7095,M,2.0,0000*4E
$GPGST,082353.00,0.137,0.004,0.004,78.935,0.004,0.004,0.008*65
$GPGGA,082354.00,0127.5160945,N,10349.0225552,E,4,29,0.5,15.6726,M,3.7095,M,2.0,0000*4C
$GPGST,082354.00,0.101,0.004,0.004,76.218,0.004,0.004,0.009*6C
$GPGGA,082355.00,0127.5160948,N,10349.0225543,E,4,29,0.5,15.6726,M,3.7095,M,2.0,0000*40
$GPGST,082355.00,0.201,0.004,0.004,75.373,0.004,0.004,0.008*60
$GPGGA,082356.00,0127.5160949,N,10349.0225542,E,4,29,0.5,15.6755,M,3.7095,M,2.0,0000*47
$GPGST,082356.00,0.185,0.004,0.004,76.177,0.004,0.004,0.008*69
$GPGGA,082357.00,0127.5160933,N,10349.0225544,E,4,29,0.5,15.6740,M,3.7095,M,2.0,0000*49
$GPGST,082357.00,0.192,0.004,0.004,77.836,0.004,0.004,0.008*63
$GPGGA,082358.00,0127.5160938,N,10349.0225548,E,4,29,0.5,15.6783,M,3.7095,M,2.0,0000*4E
$GPGST,082358.00,0.223,0.004,0.003,80.431,0.003,0.004,0.008*66
$GPGGA,082359.00,0127.5160944,N,10349.0225549,E,4,29,0.5,15.6766,M,3.7095,M,2.0,0000*4E
$GPGST,082359.00,0.228,0.004,0.003,79.222,0.003,0.004,0.008*6E
$GPGGA,082400.00,0127.5160932,N,10349.0225545,E,4,29,0.5,15.6794,M,3.7095,M,2.0,0000*45
$GPGST,082400.00,0.168,0.004,0.003,84.546,0.003,0.004,0.008*65
$GPGGA,082401.00,0127.5160945,N,10349.0225541,E,4,29,0.5,15.6803,M,3.7095,M,2.0,0000*41
$GPGST,082401.00,0.177,0.004,0.003,84.518,0.003,0.004,0.008*61
$GPGGA,082402.00,0127.5160948,N,10349.0225557,E,4,29,0.5,15.6792,M,3.7095,M,2.0,0000*4F
$GPGST,082402.00,0.157,0.004,0.004,85.578,0.004,0.004,0.008*67
$GPGGA,082403.00,0127.5160956,N,10349.0225568,E,4,29,0.5,15.6754,M,3.7095,M,2.0,0000*47
$GPGST,082403.00,0.123,0.004,0.004,89.899,0.004,0.004,0.008*6B
$GPGGA,082404.00,0127.5160952,N,10349.0225550,E,4,29,0.5,15.6679,M,3.7095,M,2.0,0000*41
$GPGST,082404.00,0.165,0.004,0.004,270.786,0.004,0.004,0.008*5B
$GPGGA,082405.00,0127.5160945,N,10349.0225538,E,4,29,0.5,15.6675,M,3.7095,M,2.0,0000*44
$GPGST,082405.00,0.172,0.004,0.004,88.125,0.004,0.004,0.008*66
$GPGGA,082406.00,0127.5160944,N,10349.0225546,E,4,29,0.5,15.6767,M,3.7095,M,2.0,0000*4D
$GPGST,082406.00,0.192,0.004,0.004,84.911,0.004,0.004,0.008*68
$GPGGA,082407.00,0127.5160946,N,10349.0225533,E,4,29,0.5,15.6725,M,3.7095,M,2.0,0000*4A
$GPGST,082407.00,0.155,0.004,0.004,84.007,0.004,0.004,0.008*6C
$GPGGA,082408.00,0127.5160942,N,10349.0225552,E,4,29,0.5,15.6730,M,3.7095,M,2.0,0000*42
$GPGST,082408.00,0.120,0.004,0.004,85.793,0.004,0.004,0.008*6A
$GPGGA,082409.00,0127.5160943,N,10349.0225550,E,4,29,0.5,15.6726,M,3.7095,M,2.0,0000*47
$GPGST,082409.00,0.161,0.004,0.004,84.771,0.004,0.004,0.008*63
$GPGGA,082410.00,0127.5160951,N,10349.0225544,E,4,29,0.5,15.6686,M,3.7095,M,2.0,0000*42
$GPGST,082410.00,0.158,0.004,0.004,85.170,0.004,0.004,0.008*67
$GPGGA,082411.00,0127.5160943,N,10349.0225541,E,4,29,0.5,15.6670,M,3.7095,M,2.0,0000*4C
$GPGST,082411.00,0.247,0.004,0.003,88.886,0.003,0.004,0.008*66
$GPGGA,082412.00,0127.5160958,N,10349.0225559,E,4,29,0.5,15.6700,M,3.7095,M,2.0,0000*4A
$GPGST,082412.00,0.186,0.004,0.004,273.333,0.004,0.004,0.008*58
$GPGGA,082413.00,0127.5160946,N,10349.0225540,E,4,29,0.5,15.6688,M,3.7095,M,2.0,0000*4D
$GPGST,082413.00,0.191,0.004,0.004,85.419,0.004,0.004,0.008*6B
$GPGGA,082414.00,0127.5160944,N,10349.0225524,E,4,29,0.5,15.6718,M,3.7095,M,2.0,0000*42
$GPGST,082414.00,0.239,0.004,0.004,86.606,0.004,0.004,0.008*62
$GPGGA,082415.00,0127.5160933,N,10349.0225551,E,4,29,0.5,15.6749,M,3.7095,M,2.0,0000*45
$GPGST,082415.00,0.229,0.004,0.004,87.241,0.004,0.004,0.008*64
$GPGGA,082416.00,0127.5160937,N,10349.0225558,E,4,28,0.5,15.6695,M,3.7095,M,2.0,0000*4A
$GPGST,082416.00,0.154,0.004,0.004,86.427,0.004,0.004,0.008*69
$GPGGA,082417.00,0127.5160948,N,10349.0225550,E,4,29,0.5,15.6676,M,3.7095,M,2.0,0000*47
$GPGST,082417.00,0.218,0.004,0.003,85.552,0.003,0.004,0.008*63
$GPGGA,082418.00,0127.5160939,N,10349.0225539,E,4,29,0.5,15.6671,M,3.7095,M,2.0,0000*46
$GPGST,082418.00,0.144,0.004,0.003,85.308,0.003,0.004,0.008*6F
$GPGGA,082419.00,0127.5160968,N,10349.0225550,E,4,28,0.5,15.6875,M,3.7095,M,2.0,0000*47
$GPGST,082419.00,0.138,0.004,0.004,89.158,0.004,0.004,0.009*6F
$GPGGA,082420.00,0127.5160964,N,10349.0225549,E,4,29,0.5,15.6793,M,3.7095,M,2.0,0000*4F
$GPGST,082420.00,0.194,0.004,0.004,273.151,0.004,0.004,0.008*5C
$GPGGA,082421.00,0127.5160969,N,10349.0225543,E,4,29,0.5,15.6814,M,3.7095,M,2.0,0000*49
$GPGST,082421.00,0.222,0.004,0.004,272.981,0.004,0.004,0.008*57
$GPGGA,082422.00,0127.5160948,N,10349.0225548,E,4,29,0.5,15.6725,M,3.7095,M,2.0,0000*4F
$GPGST,082422.00,0.204,0.004,0.004,271.471,0.004,0.004,0.008*51
$GPGGA,082423.00,0127.5160935,N,10349.0225552,E,4,28,0.5,15.6625,M,3.7095,M,2.0,0000*4F
$GPGST,082423.00,0.202,0.004,0.004,84.839,0.004,0.004,0.008*6E
$GPGGA,082424.00,0127.5160944,N,10349.0225560,E,4,28,0.5,15.6666,M,3.7095,M,2.0,0000*48
$GPGST,082424.00,0.165,0.004,0.004,57.207,0.004,0.004,0.009*63
$GPGGA,082425.00,0127.5160932,N,10349.0225554,E,4,28,0.5,15.6642,M,3.7095,M,2.0,0000*49
$GPGST,082425.00,0.178,0.004,0.004,44.924,0.004,0.004,0.009*66
$GPGGA,082426.00,0127.5160935,N,10349.0225558,E,4,28,0.5,15.6679,M,3.7095,M,2.0,0000*49
$GPGST,082426.00,0.202,0.004,0.004,48.182,0.004,0.004,0.009*63
$GPGGA,082427.00,0127.5160948,N,10349.0225562,E,4,28,0.5,15.6709,M,3.7095,M,2.0,0000*4D
$GPGST,082427.00,0.148,0.004,0.004,44.400,0.004,0.004,0.008*6D
$GPGGA,082428.00,0127.5160945,N,10349.0225547,E,4,29,0.5,15.6731,M,3.7095,M,2.0,0000*42
$GPGST,082428.00,0.140,0.004,0.004,81.032,0.004,0.004,0.008*66
$GPGGA,082429.00,0127.5160934,N,10349.0225553,E,4,29,0.5,15.6709,M,3.7095,M,2.0,0000*4B
$GPGST,082429.00,0.167,0.004,0.004,272.043,0.004,0.004,0.008*5A
$GPGGA,082430.00,0127.5160950,N,10349.0225550,E,4,29,0.5,15.6782,M,3.7095,M,2.0,0000*41
$GPGST,082430.00,0.150,0.004,0.004,80.463,0.004,0.004,0.008*6F
$GPGGA,082431.00,0127.5160958,N,10349.0225559,E,4,29,0.5,15.6721,M,3.7095,M,2.0,0000*48
$GPGST,082431.00,0.148,0.004,0.003,86.455,0.003,0.004,0.008*64
$GPGGA,082432.00,0127.5160949,N,10349.0225556,E,4,29,0.5,15.6677,M,3.7095,M,2.0,0000*46
$GPGST,082432.00,0.131,0.004,0.003,86.520,0.003,0.004,0.008*6A
$GPGGA,082433.00,0127.5160951,N,10349.0225563,E,4,29,0.5,15.6725,M,3.7095,M,2.0,0000*4E
$GPGST,082433.00,0.130,0.004,0.003,81.543,0.003,0.004,0.008*68
$GPGGA,082434.00,0127.5160968,N,10349.0225560,E,4,29,0.5,15.6768,M,3.7095,M,2.0,0000*49
$GPGST,082434.00,0.111,0.004,0.003,81.066,0.003,0.004,0.008*6E
$GPGGA,082435.00,0127.5160948,N,10349.0225544,E,4,28,0.5,15.6674,M,3.7095,M,2.0,0000*41
$GPGST,082435.00,0.124,0.004,0.004,77.243,0.004,0.004,0.008*65
$GPGGA,082436.00,0127.5160955,N,10349.0225535,E,4,28,0.5,15.6704,M,3.7095,M,2.0,0000*4E
$GPGST,082436.00,0.141,0.004,0.004,74.635,0.004,0.004,0.008*63
$GPGGA,082437.00,0127.5160958,N,10349.0225554,E,4,28,0.5,15.6710,M,3.7095,M,2.0,0000*40
$GPGST,082437.00,0.162,0.004,0.004,71.607,0.004,0.004,0.008*67
$GPGGA,082438.00,0127.5160956,N,10349.0225536,E,4,28,0.5,15.6687,M,3.7095,M,2.0,0000*4A
$GPGST,082438.00,0.133,0.004,0.004,71.123,0.004,0.004,0.009*6C
$GPGGA,082439.00,0127.5160937,N,10349.0225529,E,4,29,0.5,15.6655,M,3.7095,M,2.0,0000*4C
$GPGST,082439.00,0.109,0.004,0.004,70.438,0.004,0.004,0.008*6B
$GPGGA,082440.00,0127.5160938,N,10349.0225524,E,4,29,0.5,15.6662,M,3.7095,M,2.0,0000*44
$GPGST,082440.00,0.154,0.004,0.003,83.465,0.003,0.004,0.008*69
$GPGGA,082441.00,0127.5160939,N,10349.0225522,E,4,29,0.5,15.6687,M,3.7095,M,2.0,0000*49
$GPGST,082441.00,0.157,0.004,0.003,81.722,0.003,0.004,0.008*69
$GPGGA,082442.00,0127.5160943,N,10349.0225544,E,4,29,0.5,15.6693,M,3.7095,M,2.0,0000*42
$GPGST,082442.00,0.145,0.004,0.003,78.411,0.003,0.004,0.008*6C
$GPGGA,082443.00,0127.5160946,N,10349.0225551,E,4,29,0.5,15.6714,M,3.7095,M,2.0,0000*4C
$GPGST,082443.00,0.119,0.004,0.003,77.116,0.003,0.004,0.008*69
$GPGGA,082444.00,0127.5160935,N,10349.0225535,E,4,28,0.5,15.6728,M,3.7095,M,2.0,0000*43
$GPGST,082444.00,0.106,0.004,0.004,82.249,0.004,0.004,0.008*63
$GPGGA,082445.00,0127.5160939,N,10349.0225544,E,4,29,0.5,15.6782,M,3.7095,M,2.0,0000*49
$GPGST,082445.00,0.096,0.004,0.004,82.137,0.004,0.004,0.008*60
$GPGGA,082446.00,0127.5160929,N,10349.0225543,E,4,29,0.5,15.6717,M,3.7095,M,1.0,0000*43
$GPGST,082446.00,0.131,0.004,0.003,86.109,0.003,0.004,0.008*66
$GPGGA,082447.00,0127.5160943,N,10349.0225556,E,4,29,0.5,15.6774,M,3.7095,M,2.0,0000*4C
$GPGST,082447.00,0.106,0.004,0.004,79.673,0.004,0.004,0.008*69
$GPGGA,082448.00,0127.5160941,N,10349.0225558,E,4,28,0.5,15.6733,M,3.7095,M,2.0,0000*4D
$GPGST,082448.00,0.144,0.004,0.003,84.783,0.003,0.004,0.008*6C
$GPGGA,082449.00,0127.5160947,N,10349.0225557,E,4,29,0.5,15.6687,M,3.7095,M,2.0,0000*4A
$GPGST,082449.00,0.110,0.004,0.004,81.843,0.004,0.004,0.008*6A
$GPGGA,082450.00,0127.5160937,N,10349.0225545,E,4,29,0.5,15.6701,M,3.7095,M,2.0,0000*49
$GPGST,082450.00,0.127,0.004,0.003,77.852,0.004,0.004,0.008*68
$GPGGA,082451.00,0127.5160950,N,10349.0225525,E,4,29,0.5,15.6673,M,3.7095,M,2.0,0000*4B
$GPGST,082451.00,0.123,0.004,0.004,79.856,0.004,0.004,0.008*60
$GPGGA,082452.00,0127.5160932,N,10349.0225534,E,4,29,0.5,15.6695,M,3.7095,M,2.0,0000*44
$GPGST,082452.00,0.164,0.004,0.004,76.176,0.004,0.004,0.008*64
$GPGGA,082453.00,0127.5160932,N,10349.0225539,E,4,29,0.5,15.6687,M,3.7095,M,2.0,0000*4B
$GPGST,082453.00,0.196,0.004,0.004,78.265,0.004,0.004,0.008*67
$GPGGA,082454.00,0127.5160931,N,10349.0225541,E,4,29,0.5,15.6764,M,3.7095,M,2.0,0000*4C
$GPGST,082454.00,0.134,0.004,0.004,79.397,0.004,0.004,0.008*65
$GPGGA,082455.00,0127.5160940,N,10349.0225547,E,4,29,0.5,15.6717,M,3.7095,M,2.0,0000*49
$GPGST,082455.00,0.129,0.004,0.004,79.752,0.004,0.004,0.008*65
$GPGGA,082456.00,0127.5160949,N,10349.0225560,E,4,29,0.5,15.6731,M,3.7095,M,2.0,0000*42
$GPGST,082456.00,0.117,0.004,0.003,78.199,0.004,0.004,0.008*6C
$GPGGA,082457.00,0127.5160948,N,10349.0225556,E,4,29,0.5,15.6758,M,3.7095,M,2.0,0000*48
$GPGST,082457.00,0.109,0.004,0.003,80.712,0.003,0.004,0.008*67
$GPGGA,082458.00,0127.5160950,N,10349.0225532,E,4,29,0.5,15.6749,M,3.7095,M,2.0,0000*4C
$GPGST,082458.00,0.078,0.004,0.003,81.006,0.003,0.004,0.008*6C
$GPGGA,082459.00,0127.5160947,N,10349.0225529,E,4,29,0.5,15.6641,M,3.7095,M,2.0,0000*48
$GPGST,082459.00,0.108,0.004,0.003,79.065,0.003,0.004,0.008*69
$GPGGA,082500.00,0127.5160946,N,10349.0225531,E,4,29,0.5,15.6642,M,3.7095,M,2.0,0000*4E
$GPGST,082500.00,0.119,0.004,0.003,75.350,0.003,0.004,0.008*6D
$GPGGA,082501.00,0127.5160946,N,10349.0225546,E,4,29,0.5,15.6701,M,3.7095,M,2.0,0000*49
$GPGST,082501.00,0.079,0.004,0.004,77.541,0.004,0.004,0.008*6F
$GPGGA,082502.00,0127.5160932,N,10349.0225563,E,4,29,0.5,15.6756,M,3.7095,M,2.0,0000*4C
$GPGST,082502.00,0.095,0.004,0.003,74.728,0.003,0.004,0.008*60
$GPGGA,082503.00,0127.5160924,N,10349.0225548,E,4,29,0.5,15.6740,M,3.7095,M,2.0,0000*44
$GPGST,082503.00,0.118,0.004,0.003,75.936,0.003,0.004,0.008*65
$GPGGA,082504.00,0127.5160928,N,10349.0225533,E,4,29,0.5,15.6680,M,3.7095,M,2.0,0000*4E
$GPGST,082504.00,0.188,0.004,0.003,72.481,0.003,0.004,0.008*6D
$GPGGA,082505.00,0127.5160928,N,10349.0225535,E,4,29,0.5,15.6637,M,3.7095,M,2.0,0000*45
$GPGST,082505.00,0.172,0.004,0.003,69.762,0.003,0.004,0.008*6D
$GPGGA,082506.00,0127.5160938,N,10349.0225529,E,4,29,0.5,15.6646,M,3.7095,M,2.0,0000*4C
$GPGST,082506.00,0.149,0.004,0.003,67.046,0.004,0.004,0.008*6E
$GPGGA,082507.00,0127.5160967,N,10349.0225535,E,4,26,0.6,15.6810,M,3.7095,M,2.0,0000*4B
$GPGST,082507.00,0.085,0.004,0.004,41.094,0.004,0.004,0.008*62
$GPGGA,082508.00,0127.5160945,N,10349.0225547,E,4,27,0.6,15.6699,M,3.7095,M,2.0,0000*4F
$GPGST,082508.00,0.120,0.004,0.004,43.974,0.004,0.004,0.008*66
$GPGGA,082509.00,0127.5160953,N,10349.0225558,E,4,29,0.5,15.6790,M,3.7095,M,2.0,0000*42
$GPGST,082509.00,0.131,0.004,0.004,71.004,0.004,0.004,0.008*68
$GPGGA,082510.00,0127.5160941,N,10349.0225545,E,4,28,0.5,15.6756,M,3.7095,M,2.0,0000*4E
$GPGST,082510.00,0.129,0.004,0.003,61.043,0.004,0.004,0.008*6C
$GPGGA,082511.00,0127.5160957,N,10349.0225540,E,4,28,0.5,15.6748,M,3.7095,M,2.0,0000*42
$GPGST,082511.00,0.111,0.004,0.003,66.623,0.003,0.004,0.008*66
$GPGGA,082512.00,0127.5160945,N,10349.0225549,E,4,29,0.5,15.6675,M,3.7095,M,2.0,0000*45
$GPGST,082512.00,0.142,0.004,0.003,66.767,0.003,0.004,0.008*62
$GPGGA,082513.00,0127.5160934,N,10349.0225523,E,4,29,0.5,15.6705,M,3.7095,M,2.0,0000*48
$GPGST,082513.00,0.171,0.004,0.003,66.986,0.003,0.004,0.008*62
$GPGGA,082514.00,0127.5160918,N,10349.0225536,E,4,29,0.5,15.6822,M,3.7095,M,2.0,0000*4F
$GPGST,082514.00,0.223,0.004,0.003,68.892,0.004,0.004,0.008*6C
$GPGGA,082515.00,0127.5160944,N,10349.0225530,E,4,28,0.5,15.6601,M,3.7095,M,2.0,0000*4F
$GPGST,082515.00,0.216,0.004,0.004,62.966,0.004,0.004,0.008*6C
$GPGGA,082516.00,0127.5160959,N,10349.0225531,E,4,29,0.5,15.6626,M,3.7095,M,2.0,0000*45
$GPGST,082516.00,0.217,0.004,0.003,58.381,0.003,0.004,0.008*64
$GPGGA,082517.00,0127.5160968,N,10349.0225564,E,4,29,0.5,15.6626,M,3.7095,M,2.0,0000*46
$GPGST,082517.00,0.138,0.004,0.003,68.529,0.003,0.004,0.008*6C
$GPGGA,082518.00,0127.5160954,N,10349.0225565,E,4,29,0.5,15.6684,M,3.7095,M,2.0,0000*4F
$GPGST,082518.00,0.176,0.004,0.003,70.815,0.003,0.004,0.008*62
$GPGGA,082519.00,0127.5160957,N,10349.0225557,E,4,29,0.5,15.6722,M,3.7095,M,2.0,0000*41
$GPGST,082519.00,0.183,0.004,0.003,73.282,0.003,0.004,0.008*6E
$GPGGA,082520.00,0127.5160960,N,10349.0225554,E,4,29,0.5,15.6655,M,3.7095,M,2.0,0000*4D
$GPGST,082520.00,0.106,0.004,0.003,71.520,0.003,0.004,0.008*64
$GPGGA,082521.00,0127.5160955,N,10349.0225540,E,4,29,0.5,15.6668,M,3.7095,M,2.0,0000*41
$GPGST,082521.00,0.123,0.004,0.003,71.432,0.003,0.004,0.008*60
$GPGGA,082522.00,0127.5160947,N,10349.0225544,E,4,30,0.5,15.6652,M,3.7095,M,2.0,0000*44
$GPGST,082522.00,0.119,0.004,0.003,71.875,0.003,0.004,0.008*65
$GPGGA,082523.00,0127.5160938,N,10349.0225557,E,4,30,0.5,15.6786,M,3.7095,M,2.0,0000*47
$GPGST,082523.00,0.125,0.004,0.003,67.213,0.003,0.004,0.008*66
$GPGGA,082524.00,0127.5160937,N,10349.0225537,E,4,30,0.5,15.6742,M,3.7095,M,2.0,0000*41
$GPGST,082524.00,0.093,0.004,0.003,65.402,0.003,0.004,0.008*69
$GPGGA,082525.00,0127.5160924,N,10349.0225547,E,4,30,0.5,15.6757,M,3.7095,M,2.0,0000*41
$GPGST,082525.00,0.111,0.004,0.003,64.427,0.003,0.004,0.008*65
$GPGGA,082526.00,0127.5160912,N,10349.0225559,E,4,30,0.5,15.6778,M,3.7095,M,2.0,0000*45
$GPGST,082526.00,0.134,0.004,0.003,65.253,0.003,0.004,0.008*65
$GPGGA,082527.00,0127.5160927,N,10349.0225555,E,4,30,0.5,15.6841,M,3.7095,M,2.0,0000*4B
$GPGST,082527.00,0.207,0.004,0.003,65.231,0.003,0.004,0.008*63
$GPGGA,082528.00,0127.5160929,N,10349.0225538,E,4,29,0.5,15.6790,M,3.7095,M,2.0,0000*4A
$GPGST,082528.00,0.181,0.004,0.003,66.678,0.003,0.004,0.008*6B
$GPGGA,082529.00,0127.5160927,N,10349.0225541,E,4,29,0.5,15.6851,M,3.7095,M,2.0,0000*49
$GPGST,082529.00,0.143,0.004,0.003,65.091,0.003,0.004,0.008*66
$GPGGA,082530.00,0127.5160927,N,10349.0225537,E,4,29,0.5,15.6778,M,3.7095,M,2.0,0000*44
$GPGST,082530.00,0.134,0.004,0.003,63.989,0.003,0.004,0.008*68
$GPGGA,082531.00,0127.5160935,N,10349.0225551,E,4,29,0.5,15.6802,M,3.7095,M,2.0,0000*44
$GPGST,082531.00,0.118,0.004,0.003,64.737,0.003,0.004,0.008*6B
$GPGGA,082532.00,0127.5160944,N,10349.0225555,E,4,29,0.5,15.6738,M,3.7095,M,2.0,0000*43
$GPGST,082532.00,0.089,0.004,0.003,65.619,0.003,0.004,0.008*6D
$GPGGA,082533.00,0127.5160941,N,10349.0225560,E,4,29,0.5,15.6742,M,3.7095,M,2.0,0000*4C
$GPGST,082533.00,0.112,0.004,0.003,63.062,0.003,0.004,0.008*63
$GPGGA,082534.00,0127.5160933,N,10349.0225554,E,4,29,0.5,15.6781,M,3.7095,M,2.0,0000*46
$GPGST,082534.00,0.097,0.004,0.003,64.739,0.003,0.004,0.008*66
$GPGGA,082535.00,0127.5160922,N,10349.0225549,E,4,29,0.5,15.6783,M,3.7095,M,2.0,0000*49
$GPGST,082535.00,0.145,0.004,0.003,65.423,0.003,0.004,0.008*60
$GPGGA,082536.00,0127.5160920,N,10349.0225551,E,4,29,0.5,15.6807,M,3.7095,M,2.0,0000*42
$GPGST,082536.00,0.094,0.004,0.003,60.519,0.003,0.004,0.008*63
$GPGGA,082537.00,0127.5160948,N,10349.0225565,E,4,29,0.5,15.6750,M,3.7095,M,2.0,0000*47
$GPGST,082537.00,0.088,0.004,0.003,58.973,0.003,0.004,0.008*64
$GPGGA,082538.00,0127.5160945,N,10349.0225566,E,4,28,0.5,15.6740,M,3.7095,M,2.0,0000*46
$GPGST,082538.00,0.091,0.004,0.003,60.605,0.003,0.004,0.008*66
$GPGGA,082539.00,0127.5160939,N,10349.0225550,E,4,29,0.5,15.6721,M,3.7095,M,2.0,0000*4F
$GPGST,082539.00,0.117,0.004,0.003,56.184,0.003,0.004,0.008*63
$GPGGA,082540.00,0127.5160938,N,10349.0225554,E,4,29,0.5,15.6762,M,3.7095,M,2.0,0000*43
$GPGST,082540.00,0.093,0.004,0.003,59.349,0.003,0.004,0.008*6C
$GPGGA,082541.00,0127.5160945,N,10349.0225548,E,4,30,0.5,15.6813,M,3.7095,M,2.0,0000*44
$GPGST,082541.00,0.103,0.004,0.003,63.086,0.003,0.004,0.008*6C
$GPGGA,082542.00,0127.5160927,N,10349.0225553,E,4,30,0.5,15.6810,M,3.7095,M,2.0,0000*4A
$GPGST,082542.00,0.122,0.004,0.003,69.479,0.003,0.004,0.008*62
$GPGGA,082543.00,0127.5160917,N,10349.0225536,E,4,30,0.5,15.6830,M,3.7095,M,2.0,0000*49
$GPGST,082543.00,0.186,0.004,0.003,70.321,0.003,0.004,0.008*6F
$GPGGA,082544.00,0127.5160927,N,10349.0225533,E,4,29,0.5,15.6783,M,3.7095,M,2.0,0000*47
$GPGST,082544.00,0.090,0.004,0.003,73.036,0.003,0.004,0.008*68
$GPGGA,082545.00,0127.5160949,N,10349.0225552,E,4,29,0.5,15.6722,M,3.7095,M,2.0,0000*42
$GPGST,082545.00,0.189,0.004,0.003,76.204,0.003,0.004,0.008*66
$GPGGA,082546.00,0127.5160934,N,10349.0225548,E,4,25,0.6,15.6762,M,3.7095,M,2.0,0000*4B
$GPGST,082546.00,0.242,0.004,0.003,50.780,0.004,0.004,0.009*6A
$GPGGA,082547.00,0127.5160951,N,10349.0225567,E,4,29,0.5,15.6811,M,3.7095,M,2.0,0000*40
$GPGST,082547.00,0.147,0.004,0.003,60.892,0.004,0.004,0.008*63
$GPGGA,082548.00,0127.5160945,N,10349.0225585,E,4,29,0.5,15.6815,M,3.7095,M,2.0,0000*42
$GPGST,082548.00,0.123,0.004,0.003,69.122,0.004,0.004,0.008*65
$GPGGA,082549.00,0127.5160936,N,10349.0225564,E,4,29,0.5,15.6801,M,3.7095,M,2.0,0000*4D
$GPGST,082549.00,0.162,0.004,0.003,75.615,0.003,0.004,0.008*68
$GPGGA,082550.00,0127.5160939,N,10349.0225542,E,4,29,0.5,15.6797,M,3.7095,M,2.0,0000*4E
$GPGST,082550.00,0.128,0.004,0.003,74.422,0.003,0.004,0.008*69
$GPGGA,082551.00,0127.5160929,N,10349.0225560,E,4,29,0.5,15.6865,M,3.7095,M,2.0,0000*4C
$GPGST,082551.00,0.225,0.004,0.003,80.675,0.003,0.004,0.008*6D
$GPGGA,082552.00,0127.5160933,N,10349.0225549,E,4,28,0.5,15.6758,M,3.7095,M,2.0,0000*4F
$GPGST,082552.00,0.161,0.004,0.004,80.340,0.004,0.004,0.008*6E
$GPGGA,082553.00,0127.5160933,N,10349.0225559,E,4,28,0.5,15.6765,M,3.7095,M,2.0,0000*41
$GPGST,082553.00,0.115,0.004,0.004,83.900,0.004,0.004,0.008*61
$GPGGA,082554.00,0127.5160925,N,10349.0225538,E,4,28,0.5,15.6769,M,3.7095,M,2.0,0000*4A
$GPGST,082554.00,0.129,0.004,0.004,87.445,0.004,0.004,0.008*61
$GPGGA,082555.00,0127.5160930,N,10349.0225544,E,4,29,0.5,15.6782,M,3.7095,M,2.0,0000*40
$GPGST,082555.00,0.085,0.004,0.004,88.797,0.004,0.004,0.008*64
$GPGGA,082556.00,0127.5160929,N,10349.0225538,E,4,29,0.5,15.6745,M,3.7095,M,2.0,0000*4B
$GPGST,082556.00,0.132,0.004,0.004,271.512,0.004,0.004,0.008*51
$GPGGA,082557.00,0127.5160947,N,10349.0225547,E,4,28,0.6,15.6718,M,3.7095,M,2.0,0000*40
$GPGST,082557.00,0.245,0.004,0.003,275.752,0.003,0.004,0.008*51
$GPGGA,082558.00,0127.5160932,N,10349.0225550,E,4,29,0.5,15.6768,M,3.7095,M,2.0,0000*4E
$GPGST,082558.00,0.129,0.004,0.003,286.782,0.003,0.004,0.008*56
$GPGGA,082559.00,0127.5160930,N,10349.0225545,E,4,29,0.5,15.6780,M,3.7095,M,2.0,0000*4F
$GPGST,082559.00,0.183,0.004,0.003,88.341,0.003,0.004,0.008*60
$GPGGA,082600.00,0127.5160933,N,10349.0225542,E,4,29,0.5,15.6801,M,3.7095,M,2.0,0000*42
$GPGST,082600.00,0.126,0.004,0.003,89.133,0.003,0.004,0.008*66
$GPGGA,082601.00,0127.5160926,N,10349.0225527,E,4,29,0.5,15.6764,M,3.7095,M,2.0,0000*48
$GPGST,082601.00,0.174,0.004,0.003,270.063,0.003,0.004,0.008*50
$GPGGA,082602.00,0127.5160924,N,10349.0225545,E,4,29,0.5,15.6805,M,3.7095,M,2.0,0000*45
$GPGST,082602.00,0.191,0.004,0.003,270.151,0.003,0.004,0.008*58
$GPGGA,082603.00,0127.5160912,N,10349.0225550,E,4,29,0.5,15.6776,M,3.7095,M,2.0,0000*4E
$GPGST,082603.00,0.226,0.004,0.003,270.670,0.003,0.004,0.008*52
$GPGGA,082604.00,0127.5160924,N,10349.0225553,E,4,29,0.5,15.6790,M,3.7095,M,2.0,0000*47
$GPGST,082604.00,0.119,0.004,0.003,88.661,0.003,0.004,0.008*6F
$GPGGA,082605.00,0127.5160919,N,10349.0225557,E,4,29,0.5,15.6823,M,3.7095,M,2.0,0000*4B
$GPGST,082605.00,0.094,0.004,0.003,84.708,0.003,0.004,0.008*68
$GPGGA,082606.00,0127.5160914,N,10349.0225556,E,4,29,0.5,15.6798,M,3.7095,M,2.0,0000*4B
$GPGST,082606.00,0.123,0.004,0.003,85.691,0.003,0.004,0.008*66
$GPGGA,082607.00,0127.5160924,N,10349.0225553,E,4,29,0.5,15.6815,M,3.7095,M,2.0,0000*46
$GPGST,082607.00,0.113,0.004,0.003,84.944,0.003,0.004,0.008*62
$GPGGA,082608.00,0127.5160929,N,10349.0225553,E,4,29,0.5,15.6774,M,3.7095,M,2.0,0000*4C
$GPGST,082608.00,0.135,0.004,0.003,85.523,0.003,0.004,0.008*65
$GPGGA,082609.00,0127.5160934,N,10349.0225554,E,4,29,0.5,15.6795,M,3.7095,M,2.0,0000*49
$GPGST,082609.00,0.133,0.004,0.003,86.747,0.003,0.004,0.008*61
$GPGGA,082610.00,0127.5160932,N,10349.0225569,E,4,29,0.5,15.6794,M,3.7095,M,2.0,0000*48
$GPGST,082610.00,0.133,0.004,0.003,87.792,0.003,0.004,0.008*60
$GPGGA,082611.00,0127.5160926,N,10349.0225559,E,4,28,0.5,15.6895,M,3.7095,M,2.0,0000*40
$GPGST,082611.00,0.152,0.004,0.004,273.076,0.004,0.004,0.008*52
$GPGGA,082612.00,0127.5160928,N,10349.0225531,E,4,29,0.5,15.6719,M,3.7095,M,2.0,0000*49
$GPGST,082612.00,0.167,0.004,0.004,28.896,0.004,0.004,0.008*6D
$GPGGA,082613.00,0127.5160942,N,10349.0225534,E,4,29,0.5,15.6702,M,3.7095,M,2.0,0000*4B
$GPGST,082613.00,0.117,0.004,0.003,81.706,0.003,0.004,0.008*6E
$GPGGA,082614.00,0127.5160936,N,10349.0225563,E,4,29,0.5,15.6779,M,3.7095,M,2.0,0000*41
$GPGST,082614.00,0.184,0.004,0.003,78.947,0.003,0.004,0.008*6E
$GPGGA,082615.00,0127.5160935,N,10349.0225540,E,4,29,0.5,15.6758,M,3.7095,M,2.0,0000*41
$GPGST,082615.00,0.173,0.004,0.003,75.836,0.003,0.004,0.008*6D
$GPGGA,082616.00,0127.5160934,N,10349.0225562,E,4,28,0.6,15.6807,M,3.7095,M,2.0,0000*44
$GPGST,082616.00,0.151,0.004,0.003,81.289,0.003,0.004,0.008*6B
$GPGGA,082617.00,0127.5160938,N,10349.0225542,E,4,30,0.5,15.6699,M,3.7095,M,2.0,0000*48
$GPGST,082617.00,0.202,0.004,0.003,73.555,0.003,0.004,0.008*64
$GPGGA,082618.00,0127.5160920,N,10349.0225529,E,4,30,0.5,15.6747,M,3.7095,M,2.0,0000*41
$GPGST,082618.00,0.173,0.004,0.003,69.406,0.003,0.004,0.008*62
$GPGGA,082619.00,0127.5160922,N,10349.0225548,E,4,30,0.5,15.6816,M,3.7095,M,2.0,0000*4E
$GPGST,082619.00,0.109,0.004,0.003,69.560,0.003,0.004,0.008*6F
$GPGGA,082620.00,0127.5160928,N,10349.0225561,E,4,30,0.5,15.6815,M,3.7095,M,2.0,0000*46
$GPGST,082620.00,0.099,0.004,0.003,71.725,0.003,0.004,0.008*67
$GPGGA,082621.00,0127.5160915,N,10349.0225564,E,4,30,0.5,15.6764,M,3.7095,M,2.0,0000*45
$GPGST,082621.00,0.102,0.004,0.003,71.697,0.003,0.004,0.008*6D
$GPGGA,082622.00,0127.5160920,N,10349.0225559,E,4,30,0.5,15.6790,M,3.7095,M,2.0,0000*45
$GPGST,082622.00,0.094,0.004,0.003,71.850,0.003,0.004,0.008*65
$GPGGA,082623.00,0127.5160913,N,10349.0225544,E,4,30,0.5,15.6828,M,3.7095,M,2.0,0000*44
$GPGST,082623.00,0.129,0.004,0.003,70.474,0.003,0.004,0.008*68
$GPGGA,082624.00,0127.5160923,N,10349.0225549,E,4,30,0.5,15.6790,M,3.7095,M,2.0,0000*41
$GPGST,082624.00,0.081,0.004,0.003,70.734,0.003,0.004,0.008*6B
$GPGGA,082625.00,0127.5160918,N,10349.0225544,E,4,30,0.5,15.6754,M,3.7095,M,2.0,0000*4D
$GPGST,082625.00,0.086,0.004,0.003,70.381,0.003,0.004,0.008*67
$GPGGA,082626.00,0127.5160931,N,10349.0225551,E,4,30,0.5,15.6757,M,3.7095,M,2.0,0000*42
$GPGST,082626.00,0.118,0.004,0.003,70.040,0.003,0.004,0.008*6C
$GPGGA,082627.00,0127.5160914,N,10349.0225544,E,4,30,0.5,15.6820,M,3.7095,M,2.0,0000*4F
$GPGST,082627.00,0.122,0.004,0.003,70.984,0.003,0.004,0.008*65
$GPGGA,082628.00,0127.5160914,N,10349.0225553,E,4,30,0.5,15.6826,M,3.7095,M,2.0,0000*40
$GPGST,082628.00,0.076,0.004,0.003,70.450,0.003,0.004,0.008*6E
$GPGGA,082629.00,0127.5160907,N,10349.0225559,E,4,30,0.5,15.6816,M,3.7095,M,2.0,0000*4A
$GPGST,082629.00,0.096,0.004,0.003,70.558,0.003,0.004,0.008*68
$GPGGA,082630.00,0127.5160913,N,10349.0225551,E,4,30,0.5,15.6793,M,3.7095,M,2.0,0000*4D
$GPGST,082630.00,0.093,0.004,0.003,71.555,0.003,0.004,0.008*69
$GPGGA,082631.00,0127.5160922,N,10349.0225545,E,4,30,0.5,15.6770,M,3.7095,M,2.0,0000*46
$GPGST,082631.00,0.134,0.004,0.003,71.870,0.003,0.004,0.008*6E
$GPGGA,082632.00,0127.5160932,N,10349.0225550,E,4,30,0.5,15.6724,M,3.7095,M,2.0,0000*41
