$GPGGA,082949.00,0127.5139346,N,10349.0229912,E,1,06,1.2,14.4607,M,3.7096,M,,*6B
$GPGST,082949.00,0.548,5.909,4.431,52.767,5.023,5.415,13.150*51
$GPGGA,082950.00,0127.5132814,N,10349.0231871,E,1,06,1.2,14.2149,M,3.7096,M,,*62
$GPGST,082950.00,1.097,2.257,1.795,55.219,1.957,2.118,5.671*69
$GPGGA,082951.00,0127.5130702,N,10349.0232498,E,1,06,1.2,14.2723,M,3.7096,M,,*6B
$GPGST,082951.00,0.982,2.256,1.797,55.147,1.959,2.117,5.673*6C
$GPGGA,082952.00,0127.5130211,N,10349.0232456,E,1,06,1.2,14.3045,M,3.7096,M,,*6B
$GPGST,082952.00,0.873,2.255,1.794,55.277,1.956,2.116,5.667*6B
$GPGGA,082953.00,0127.5130141,N,10349.0232285,E,1,06,1.2,14.3039,M,3.7096,M,,*6F
$GPGST,082953.00,0.775,2.254,1.795,55.273,1.956,2.116,5.668*68
$GPGGA,082954.00,0127.5130060,N,10349.0232058,E,1,06,1.2,14.2778,M,3.7096,M,,*6B
$GPGST,082954.00,0.672,2.263,1.804,55.380,1.964,2.126,5.685*66
$GPGGA,082955.00,0127.5129967,N,10349.0231663,E,1,06,1.2,14.2369,M,3.7096,M,,*65
$GPGST,082955.00,0.611,2.272,1.804,55.301,1.968,2.132,5.695*63
$GPGGA,082956.00,0127.5129849,N,10349.0231320,E,1,06,1.2,14.1983,M,3.7096,M,,*64
$GPGST,082956.00,0.561,2.267,1.803,55.425,1.964,2.129,5.688*6C
$GPGGA,082957.00,0127.5129748,N,10349.0231004,E,1,06,1.2,14.2029,M,3.7096,M,,*64
$GPGST,082957.00,0.563,2.253,1.790,55.166,1.953,2.113,5.665*61
$GPGGA,082958.00,0127.5129663,N,10349.0230749,E,1,06,1.2,14.2330,M,3.7096,M,,*67
$GPGST,082958.00,0.591,2.248,1.788,55.136,1.950,2.108,5.659*63
$GPGGA,082959.00,0127.5129567,N,10349.0230551,E,1,06,1.2,14.2582,M,3.7096,M,,*65
$GPGST,082959.00,0.451,2.248,1.792,55.285,1.952,2.111,5.663*6C
$GPGGA,083000.00,0127.5129528,N,10349.0230443,E,1,06,1.2,14.2803,M,3.7096,M,,*6C
$GPGST,083000.00,0.334,2.246,1.788,55.135,1.949,2.107,5.658*64
$GPGGA,083001.00,0127.5129999,N,10349.0229474,E,1,13,0.8,14.2815,M,3.7096,M,,*6F
$GPGST,083001.00,1.500,0.882,0.817,69.368,0.826,0.874,2.535*61
$GPGGA,083002.00,0127.5131303,N,10349.0227055,E,1,13,0.8,14.1906,M,3.7095,M,,*66
$GPGST,083002.00,1.321,0.880,0.814,68.666,0.823,0.871,2.527*6F
$GPGGA,083003.00,0127.5132133,N,10349.0225527,E,1,13,0.8,14.0728,M,3.7095,M,,*64
$GPGST,083003.00,1.279,0.879,0.815,67.015,0.825,0.869,2.529*69
$GPGGA,083004.00,0127.5132725,N,10349.0224583,E,1,13,0.8,13.9580,M,3.7095,M,,*63
$GPGST,083004.00,1.324,0.882,0.817,62.582,0.831,0.869,2.534*66
$GPGGA,083005.00,0127.5133229,N,10349.0224159,E,2,13,0.8,13.8816,M,3.7095,M,3.4,0122*41
$GPGST,083005.00,1.678,4.500,3.956,331.729,4.384,4.084,12.986*63
$GPGGA,083006.00,0127.5133265,N,10349.0224196,E,2,13,0.8,13.8784,M,3.7095,M,4.4,0122*4A
$GPGST,083006.00,1.628,4.500,3.956,331.747,4.384,4.084,12.987*6C
$GPGGA,083007.00,0127.5133272,N,10349.0224232,E,2,13,0.8,13.8759,M,3.7095,M,3.4,0122*47
$GPGST,083007.00,1.593,4.500,3.956,331.773,4.384,4.084,12.988*66
$GPGGA,083008.00,0127.5133317,N,10349.0224251,E,2,13,0.8,13.8731,M,3.7095,M,1.4,0122*43
$GPGST,083008.00,1.615,4.499,3.955,331.927,4.384,4.081,12.989*6D
$GPGGA,083009.00,0127.5133354,N,10349.0224286,E,2,13,0.8,13.8766,M,3.7095,M,2.4,0122*4E
$GPGST,083009.00,1.589,4.498,3.953,332.110,4.384,4.078,12.990*6C
$GPGGA,083010.00,0127.5133374,N,10349.0224323,E,2,15,0.7,13.8745,M,3.7095,M,3.4,0122*43
$GPGST,083010.00,1.440,4.300,3.927,335.764,4.240,3.992,12.451*64
$GPGGA,083011.00,0127.5133417,N,10349.0224358,E,2,15,0.7,13.8763,M,3.7095,M,2.8,0122*45
$GPGST,083011.00,1.466,4.077,3.859,343.442,4.060,3.877,11.767*63
$GPGGA,083012.00,0127.5133437,N,10349.0224389,E,2,15,0.7,13.8762,M,3.7095,M,3.8,0122*48
$GPGST,083012.00,1.422,4.066,3.853,348.109,4.057,3.862,11.749*67
$GPGGA,083013.00,0127.5133456,N,10349.0224408,E,2,15,0.7,13.8757,M,3.7095,M,1.8,0122*44
$GPGST,083013.00,1.357,4.066,3.853,348.327,4.058,3.862,11.750*6A
$GPGGA,083014.00,0127.5133486,N,10349.0224444,E,2,15,0.7,13.8812,M,3.7095,M,2.8,0122*4B
$GPGST,083014.00,1.378,4.017,3.848,353.136,4.015,3.851,11.482*61
$GPGGA,083015.00,0127.5133531,N,10349.0224470,E,2,29,0.5,13.8924,M,3.7095,M,3.8,0122*48
$GPGST,083015.00,1.345,3.698,3.556,288.872,3.571,3.683,10.000*6A
$GPGGA,083016.00,0127.5133591,N,10349.0224516,E,2,29,0.5,13.9147,M,3.7095,M,2.8,0122*4D
$GPGST,083016.00,1.338,3.434,3.004,284.174,3.032,3.410,8.526*54
$GPGGA,083017.00,0127.5133653,N,10349.0224546,E,2,29,0.5,13.9387,M,3.7095,M,3.8,0122*4B
$GPGST,083017.00,1.334,3.401,2.992,282.781,3.013,3.383,8.486*57
$GPGGA,083018.00,0127.5133708,N,10349.0224598,E,2,29,0.5,13.9564,M,3.7095,M,1.8,0122*41
$GPGST,083018.00,1.338,3.400,2.992,282.723,3.013,3.382,8.485*5F
$GPGGA,083019.00,0127.5133762,N,10349.0224658,E,2,32,0.5,13.9754,M,3.7095,M,2.8,0122*4B
$GPGST,083019.00,1.281,3.398,2.974,281.897,2.993,3.381,8.400*5E
$GPGGA,083020.00,0127.5133807,N,10349.0224681,E,2,32,0.5,13.9912,M,3.7095,M,3.8,0122*44
$GPGST,083020.00,1.240,3.397,2.950,281.134,2.968,3.381,8.295*5E
$GPGGA,083021.00,0127.5133858,N,10349.0224726,E,2,32,0.5,14.0128,M,3.7095,M,2.8,0122*4D
$GPGST,083021.00,1.244,3.395,2.950,280.923,2.967,3.380,8.292*5F
$GPGGA,083022.00,0127.5133911,N,10349.0224779,E,2,32,0.5,14.0325,M,3.7095,M,3.8,0122*46
$GPGST,083022.00,1.248,3.395,2.950,280.899,2.967,3.380,8.293*51
$GPGGA,083023.00,0127.5133964,N,10349.0224806,E,2,32,0.5,14.0472,M,3.7095,M,1.8,0122*45
$GPGST,083023.00,1.256,3.395,2.950,280.880,2.967,3.380,8.293*57
$GPGGA,083024.00,0127.5134014,N,10349.0224864,E,2,32,0.5,14.0656,M,3.7095,M,2.8,0122*48
$GPGST,083024.00,1.222,3.395,2.951,280.862,2.968,3.380,8.294*56
$GPGGA,083025.00,0127.5134058,N,10349.0224907,E,2,34,0.5,14.0882,M,3.7095,M,3.8,0122*45
$GPGST,083025.00,1.254,3.294,2.948,282.230,2.965,3.279,7.920*50
$GPGGA,083026.00,0127.5134100,N,10349.0224953,E,2,34,0.5,14.1009,M,3.7095,M,2.8,0122*40
$GPGST,083026.00,1.237,3.266,2.947,283.068,2.965,3.251,7.885*5E
$GPGGA,083027.00,0127.5134156,N,10349.0225007,E,2,34,0.5,14.1200,M,3.7095,M,3.8,0122*41
$GPGST,083027.00,1.248,3.265,2.947,283.076,2.965,3.250,7.885*5A
$GPGGA,083028.00,0127.5134190,N,10349.0225062,E,2,34,0.5,14.1402,M,3.7095,M,1.8,0122*41
$GPGST,083028.00,1.250,3.265,2.948,283.053,2.965,3.250,7.885*54
$GPGGA,083029.00,0127.5134255,N,10349.0225110,E,2,34,0.5,14.1600,M,3.7095,M,2.8,0122*4D
$GPGST,083029.00,1.254,3.265,2.948,283.030,2.965,3.250,7.886*57
$GPGGA,083030.00,0127.5134302,N,10349.0225165,E,2,34,0.5,14.1800,M,3.7095,M,3.8,0122*4B
$GPGST,083030.00,1.247,3.265,2.948,283.008,2.965,3.250,7.886*56
$GPGGA,083031.00,0127.5134341,N,10349.0225200,E,2,34,0.5,14.1899,M,3.7095,M,2.8,0122*4C
$GPGST,083031.00,1.221,3.265,2.948,282.983,2.964,3.250,7.886*5D
$GPGGA,083032.00,0127.5134392,N,10349.0225246,E,2,34,0.5,14.2144,M,3.7095,M,3.8,0122*48
$GPGST,083032.00,1.218,3.144,2.863,292.936,2.907,3.103,7.758*5F
$GPGGA,083033.00,0127.5134442,N,10349.0225310,E,2,34,0.5,14.2373,M,3.7095,M,1.8,0122*45
$GPGST,083033.00,1.201,3.029,2.725,306.507,2.836,2.925,7.594*5F
$GPGGA,083034.00,0127.5134498,N,10349.0225360,E,2,34,0.5,14.2525,M,3.7095,M,2.8,0122*44
$GPGST,083034.00,1.196,3.019,2.728,306.491,2.834,2.919,7.590*5C
$GPGGA,083035.00,0127.5134548,N,10349.0225404,E,2,34,0.5,14.2781,M,3.7095,M,3.8,0122*41
$GPGST,083035.00,1.190,3.019,2.728,306.446,2.834,2.920,7.591*5A
$GPGGA,083036.00,0127.5134587,N,10349.0225445,E,2,34,0.5,14.2894,M,3.7095,M,2.8,0122*4E
$GPGST,083036.00,1.180,3.019,2.728,306.412,2.834,2.920,7.591*59
$GPGGA,083037.00,0127.5134643,N,10349.0225491,E,2,34,0.5,14.3066,M,3.7095,M,1.4,0122*46
$GPGST,083037.00,1.170,3.018,2.727,306.436,2.833,2.919,7.591*52
$GPGGA,083038.00,0127.5134680,N,10349.0225529,E,2,34,0.5,14.3205,M,3.7095,M,2.4,0122*40
$GPGST,083038.00,1.163,3.018,2.728,306.460,2.834,2.919,7.591*54
$GPGGA,083039.00,0127.5134730,N,10349.0225585,E,2,36,0.4,14.3375,M,3.7095,M,3.4,0122*49
$GPGST,083039.00,1.177,2.957,2.720,311.513,2.826,2.855,7.333*5C
$GPGGA,083040.00,0127.5134762,N,10349.0225642,E,2,36,0.4,14.3544,M,3.7095,M,4.4,0122*4B
$GPGST,083040.00,1.198,2.939,2.711,314.796,2.826,2.828,7.312*5A
$GPGGA,083041.00,0127.5134809,N,10349.0225682,E,2,36,0.4,14.3698,M,3.7095,M,3.4,0122*41
$GPGST,083041.00,1.209,2.938,2.711,314.867,2.826,2.827,7.312*5F
$GPGGA,083042.00,0127.5134851,N,10349.0225737,E,2,36,0.4,14.3913,M,3.7095,M,1.4,0122*4E
$GPGST,083042.00,1.197,2.938,2.710,314.901,2.826,2.827,7.312*58
$GPGGA,083043.00,0127.5134903,N,10349.0225776,E,2,36,0.4,14.4074,M,3.7095,M,2.4,0122*40
$GPGST,083043.00,1.231,2.937,2.710,314.991,2.826,2.826,7.312*51
$GPGGA,083044.00,0127.5134956,N,10349.0225819,E,2,36,0.4,14.4217,M,3.7095,M,3.4,0122*47
$GPGST,083044.00,1.229,2.937,2.711,314.968,2.826,2.826,7.313*59
$GPGGA,083045.00,0127.5134990,N,10349.0225877,E,2,36,0.4,14.4378,M,3.7095,M,2.8,0122*41
$GPGST,083045.00,1.201,2.937,2.711,314.923,2.826,2.827,7.314*5B
$GPGGA,083046.00,0127.5135019,N,10349.0225920,E,2,36,0.4,14.4471,M,3.7095,M,1.4,0122*49
$GPGST,083046.00,1.174,2.937,2.710,314.937,2.826,2.826,7.314*5C
$GPGGA,083047.00,0127.5135055,N,10349.0225960,E,2,36,0.4,14.4623,M,3.7095,M,2.4,0122*42
$GPGST,083047.00,1.176,2.936,2.711,315.002,2.826,2.826,7.314*51
$GPGGA,083048.00,0127.5135094,N,10349.0225989,E,2,36,0.4,14.4793,M,3.7095,M,3.4,0122*4C
$GPGST,083048.00,1.180,2.936,2.711,314.970,2.826,2.826,7.315*5B
$GPGGA,083049.00,0127.5135137,N,10349.0226040,E,2,36,0.4,14.4880,M,3.7095,M,4.4,0122*40
$GPGST,083049.00,1.170,2.936,2.712,314.940,2.826,2.827,7.316*57
$GPGGA,083050.00,0127.5135171,N,10349.0226072,E,2,36,0.4,14.5004,M,3.7095,M,3.4,0122*49
$GPGST,083050.00,1.159,2.937,2.712,314.886,2.826,2.827,7.317*5F
$GPGGA,083051.00,0127.5134863,N,10349.0225899,E,1,36,0.4,14.4511,M,3.7095,M,,*66
$GPGST,083051.00,1.795,0.804,0.703,71.360,0.714,0.794,2.130*61
$GPGGA,083052.00,0127.5134422,N,10349.0225626,E,1,36,0.4,14.3835,M,3.7095,M,,*6A
$GPGST,083052.00,1.774,0.803,0.704,70.583,0.715,0.793,2.131*60
$GPGGA,083053.00,0127.5134016,N,10349.0225399,E,1,36,0.4,14.3309,M,3.7095,M,,*6D
$GPGST,083053.00,1.756,0.804,0.704,70.307,0.716,0.793,2.131*6F
$GPGGA,083054.00,0127.5133711,N,10349.0225230,E,1,36,0.4,14.2888,M,3.7095,M,,*6C
$GPGST,083054.00,1.736,0.803,0.704,71.651,0.714,0.794,2.130*6A
$GPGGA,083055.00,0127.5133526,N,10349.0225086,E,1,37,0.4,14.2629,M,3.7095,M,,*60
$GPGST,083055.00,1.666,0.804,0.708,69.785,0.720,0.793,2.123*67
$GPGGA,083056.00,0127.5133361,N,10349.0224950,E,1,37,0.4,14.2473,M,3.7095,M,,*68
$GPGST,083056.00,1.658,0.805,0.706,70.285,0.718,0.795,2.123*66
$GPGGA,083057.00,0127.5133230,N,10349.0224815,E,1,37,0.4,14.2284,M,3.7095,M,,*62
$GPGST,083057.00,1.632,0.806,0.707,71.202,0.718,0.796,2.125*62
$GPGGA,083058.00,0127.5133126,N,10349.0224682,E,1,37,0.4,14.2034,M,3.7095,M,,*60
$GPGST,083058.00,1.596,0.807,0.707,69.758,0.720,0.796,2.128*64
$GPGGA,083059.00,0127.5133005,N,10349.0224564,E,1,37,0.4,14.1888,M,3.7095,M,,*66
$GPGST,083059.00,1.577,0.808,0.709,70.358,0.720,0.797,2.129*67
$GPGGA,083100.00,0127.5132892,N,10349.0224453,E,1,37,0.4,14.1729,M,3.7095,M,,*6D
$GPGST,083100.00,1.549,0.807,0.709,69.642,0.721,0.796,2.130*66
$GPGGA,083101.00,0127.5132796,N,10349.0224345,E,1,37,0.4,14.1458,M,3.7095,M,,*62
$GPGST,083101.00,1.551,0.806,0.705,70.254,0.718,0.795,2.123*63
$GPGGA,083102.00,0127.5132696,N,10349.0224232,E,1,37,0.4,14.1262,M,3.7095,M,,*6E
$GPGST,083102.00,1.583,0.807,0.707,70.072,0.720,0.796,2.125*64
$GPGGA,083103.00,0127.5132596,N,10349.0224131,E,1,37,0.4,14.0917,M,3.7095,M,,*64
$GPGST,083103.00,1.595,0.806,0.706,70.435,0.718,0.795,2.126*6E
$GPGGA,083104.00,0127.5132502,N,10349.0224058,E,1,37,0.4,14.0689,M,3.7095,M,,*68
$GPGST,083104.00,1.622,0.805,0.706,70.182,0.718,0.795,2.125*6F
$GPGGA,083105.00,0127.5132425,N,10349.0223994,E,1,37,0.4,14.0428,M,3.7095,M,,*6A
$GPGST,083105.00,1.629,0.806,0.707,70.366,0.719,0.796,2.128*60
$GPGGA,083106.00,0127.5132344,N,10349.0223923,E,1,37,0.4,14.0245,M,3.7095,M,,*68
$GPGST,083106.00,1.620,0.805,0.708,69.108,0.721,0.793,2.130*63
$GPGGA,083107.00,0127.5132288,N,10349.0223857,E,1,37,0.4,14.0086,M,3.7095,M,,*67
$GPGST,083107.00,1.634,0.806,0.709,68.923,0.722,0.794,2.131*60
$GPGGA,083108.00,0127.5132214,N,10349.0223792,E,1,37,0.4,13.9946,M,3.7095,M,,*60
$GPGST,083108.00,1.640,0.808,0.707,69.433,0.720,0.796,2.128*69
$GPGGA,083109.00,0127.5132177,N,10349.0223749,E,1,41,0.4,13.9895,M,3.7095,M,,*6F
$GPGST,083109.00,1.846,0.806,0.704,70.371,0.717,0.795,2.114*6C
$GPGGA,083110.00,0127.5132129,N,10349.0223713,E,1,41,0.4,13.9854,M,3.7095,M,,*6E
$GPGST,083110.00,1.831,0.801,0.701,70.685,0.713,0.791,2.107*6A
$GPGGA,083111.00,0127.5132098,N,10349.0223667,E,1,41,0.4,13.9834,M,3.7095,M,,*60
$GPGST,083111.00,1.876,0.805,0.705,70.430,0.717,0.795,2.114*66
$GPGGA,083112.00,0127.5132072,N,10349.0223633,E,1,41,0.4,13.9786,M,3.7095,M,,*60
$GPGST,083112.00,1.848,0.806,0.707,70.545,0.719,0.796,2.117*64
$GPGGA,083113.00,0127.5132033,N,10349.0223615,E,1,41,0.4,13.9778,M,3.7095,M,,*61
$GPGST,083113.00,1.809,0.806,0.710,70.808,0.721,0.796,2.119*67
$GPGGA,083114.00,0127.5132009,N,10349.0223567,E,1,41,0.4,13.9726,M,3.7095,M,,*62
$GPGST,083114.00,1.805,0.806,0.709,69.879,0.721,0.795,2.120*63
$GPGGA,083115.00,0127.5131972,N,10349.0223541,E,1,41,0.4,13.9694,M,3.7095,M,,*69
$GPGST,083115.00,1.804,0.806,0.706,71.144,0.717,0.796,2.116*61
$GPGGA,083116.00,0127.5131946,N,10349.0223507,E,1,41,0.4,13.9619,M,3.7095,M,,*6A
$GPGST,083116.00,1.813,0.806,0.707,70.452,0.719,0.796,2.119*67
$GPGGA,083117.00,0127.5131903,N,10349.0223472,E,1,41,0.4,13.9494,M,3.7095,M,,*6E
$GPGST,083117.00,1.798,0.807,0.708,71.285,0.719,0.797,2.120*62
$GPGGA,083118.00,0127.5131872,N,10349.0223449,E,1,41,0.4,13.9376,M,3.7095,M,,*65
$GPGST,083118.00,1.784,0.807,0.707,71.947,0.717,0.798,2.116*6E
$GPGGA,083119.00,0127.5131840,N,10349.0223426,E,1,41,0.4,13.9353,M,3.7095,M,,*6B
$GPGST,083119.00,1.766,0.805,0.710,70.204,0.722,0.794,2.123*66
$GPGGA,083120.00,0127.5131823,N,10349.0223400,E,1,41,0.4,13.9338,M,3.7095,M,,*6D
$GPGST,083120.00,1.756,0.804,0.709,71.970,0.719,0.796,2.119*6C
$GPGGA,083121.00,0127.5131800,N,10349.0223382,E,1,41,0.4,13.9298,M,3.7095,M,,*6B
$GPGST,083121.00,1.747,0.803,0.706,70.890,0.717,0.793,2.116*6F
$GPGGA,083122.00,0127.5131780,N,10349.0223368,E,1,41,0.4,13.9249,M,3.7095,M,,*67
$GPGST,083122.00,1.754,0.806,0.709,70.113,0.721,0.795,2.122*62
$GPGGA,083123.00,0127.5131757,N,10349.0223343,E,1,41,0.4,13.9284,M,3.7095,M,,*64
$GPGST,083123.00,1.748,0.803,0.711,72.191,0.720,0.795,2.123*6A
$GPGGA,083124.00,0127.5131741,N,10349.0223332,E,1,41,0.4,13.9318,M,3.7095,M,,*66
$GPGST,083124.00,1.733,0.803,0.707,70.020,0.719,0.792,2.118*6A
$GPGGA,083125.00,0127.5131733,N,10349.0223347,E,1,41,0.4,13.9437,M,3.7095,M,,*6A
$GPGST,083125.00,1.713,0.805,0.710,71.054,0.721,0.795,2.122*6E
$GPGGA,083126.00,0127.5131714,N,10349.0223357,E,1,41,0.4,13.9577,M,3.7095,M,,*68
$GPGST,083126.00,1.706,0.803,0.710,70.789,0.720,0.793,2.122*6E
$GPGGA,083127.00,0127.5131704,N,10349.0223366,E,1,41,0.4,13.9733,M,3.7095,M,,*68
$GPGST,083127.00,1.715,0.806,0.712,69.969,0.723,0.795,2.127*62
$GPGGA,083128.00,0127.5131686,N,10349.0223368,E,1,41,0.4,13.9824,M,3.7095,M,,*6B
$GPGST,083128.00,1.717,0.804,0.710,70.483,0.722,0.795,2.125*6D
$GPGGA,083129.00,0127.5131676,N,10349.0223373,E,1,41,0.4,13.9870,M,3.7095,M,,*6E
$GPGST,083129.00,1.708,0.806,0.711,70.598,0.722,0.796,2.126*6A
$GPGGA,083130.00,0127.5131652,N,10349.0223377,E,1,41,0.4,13.9894,M,3.7095,M,,*6E
$GPGST,083130.00,1.684,0.810,0.714,70.695,0.725,0.800,2.129*63
$GPGGA,083131.00,0127.5131636,N,10349.0223375,E,1,41,0.4,13.9951,M,3.7095,M,,*67
$GPGST,083131.00,1.664,0.804,0.710,70.278,0.721,0.794,2.122*67
$GPGGA,083132.00,0127.5131629,N,10349.0223390,E,1,41,0.4,14.0019,M,3.7095,M,,*6A
$GPGST,083132.00,1.659,0.804,0.708,69.534,0.721,0.793,2.122*63
$GPGGA,083133.00,0127.5131622,N,10349.0223396,E,1,41,0.4,14.0068,M,3.7095,M,,*60
$GPGST,083133.00,1.669,0.809,0.711,70.626,0.722,0.798,2.125*63
$GPGGA,083134.00,0127.5136450,N,10349.0233212,E,2,41,0.4,15.3161,M,3.7096,M,3.4,0132*48
$GPGST,083134.00,2.634,3.384,2.612,86.285,2.616,3.382,6.424*6E
$GPGGA,083135.00,0127.5138004,N,10349.0236407,E,2,41,0.4,16.4208,M,3.7096,M,4.4,0132*4A
$GPGST,083135.00,2.320,3.385,2.613,86.277,2.617,3.382,6.427*60
$GPGGA,083136.00,0127.5139021,N,10349.0238464,E,2,41,0.4,17.4343,M,3.7097,M,5.4,0132*4B
$GPGST,083136.00,2.204,3.385,2.614,86.267,2.618,3.382,6.430*6B
$GPGGA,083137.00,0127.5139532,N,10349.0239427,E,2,41,0.4,18.0621,M,3.7097,M,3.9,0132*4A
$GPGST,083137.00,2.155,3.386,2.615,86.256,2.619,3.383,6.430*6D
$GPGGA,083138.00,0127.5139820,N,10349.0239918,E,2,41,0.4,18.4735,M,3.7097,M,1.4,0132*45
$GPGST,083138.00,2.089,3.385,2.613,86.246,2.617,3.382,6.424*6C
$GPGGA,083139.00,0127.5139994,N,10349.0240198,E,2,41,0.4,18.7684,M,3.7097,M,2.4,0132*4F
$GPGST,083139.00,2.068,3.384,2.610,86.241,2.614,3.381,6.421*62
$GPGGA,083140.00,0127.5140088,N,10349.0240418,E,2,41,0.4,19.0081,M,3.7097,M,3.4,0132*42
$GPGST,083140.00,2.065,3.384,2.610,86.228,2.614,3.381,6.424*6B
$GPGGA,083141.00,0127.5140151,N,10349.0240542,E,2,41,0.4,19.1770,M,3.7097,M,4.4,0132*47
$GPGST,083141.00,2.027,3.384,2.611,86.218,2.615,3.381,6.427*6C
$GPGGA,083142.00,0127.5140227,N,10349.0240604,E,2,41,0.4,19.2945,M,3.7097,M,5.4,0132*4D
$GPGST,083142.00,2.019,3.385,2.612,86.208,2.616,3.382,6.430*67
$GPGGA,083143.00,0127.5140298,N,10349.0240647,E,2,41,0.4,19.3840,M,3.7097,M,3.9,0132*41
$GPGST,083143.00,2.015,3.385,2.613,86.194,2.617,3.382,6.430*6C
$GPGGA,083144.00,0127.5140346,N,10349.0240702,E,2,41,0.4,19.4544,M,3.7097,M,1.4,0132*45
$GPGST,083144.00,2.002,3.384,2.611,86.178,2.615,3.381,6.423*6F
$GPGGA,083145.00,0127.5140376,N,10349.0240759,E,2,41,0.4,19.5073,M,3.7097,M,2.4,0132*4A
$GPGST,083145.00,1.994,3.383,2.608,86.175,2.612,3.380,6.420*6C
$GPGGA,083146.00,0127.5140405,N,10349.0240822,E,2,41,0.4,19.5535,M,3.7097,M,3.4,0132*4F
$GPGST,083146.00,2.036,3.383,2.608,86.167,2.612,3.380,6.423*6D
$GPGGA,083147.00,0127.5140452,N,10349.0240898,E,2,41,0.4,19.5866,M,3.7097,M,4.4,0132*41
$GPGST,083147.00,2.086,3.384,2.609,86.158,2.613,3.381,6.426*68
$GPGGA,083148.00,0127.5140486,N,10349.0240950,E,2,41,0.4,19.6284,M,3.7097,M,5.4,0132*46
$GPGST,083148.00,2.100,3.384,2.610,86.149,2.614,3.381,6.430*60
$GPGGA,083149.00,0127.5140512,N,10349.0241006,E,2,41,0.4,19.6679,M,3.7097,M,3.9,0132*4D
$GPGST,083149.00,2.115,3.384,2.611,86.136,2.615,3.381,6.429*65
$GPGGA,083150.00,0127.5140528,N,10349.0241048,E,2,41,0.4,19.6981,M,3.7097,M,1.4,0132*41
$GPGST,083150.00,2.136,3.384,2.609,86.124,2.613,3.381,6.423*6A
$GPGGA,083151.00,0127.5140546,N,10349.0241071,E,2,41,0.4,19.7262,M,3.7097,M,2.4,0132*46
$GPGST,083151.00,2.147,3.383,2.606,86.123,2.610,3.380,6.421*62
$GPGGA,083152.00,0127.5140573,N,10349.0240906,E,2,41,0.4,19.7658,M,3.7097,M,3.4,0132*47
$GPGST,083152.00,2.242,3.183,2.597,82.380,2.608,3.174,6.408*6A
$GPGGA,083153.00,0127.5140613,N,10349.0240637,E,2,41,0.4,19.8171,M,3.7097,M,4.4,0132*4A
$GPGST,083153.00,2.220,2.950,2.571,72.858,2.606,2.919,6.387*6D
$GPGGA,083154.00,0127.5140653,N,10349.0240404,E,2,41,0.4,19.8631,M,3.7097,M,5.4,0132*49
$GPGST,083154.00,2.229,2.944,2.571,72.415,2.607,2.912,6.389*67
$GPGGA,083155.00,0127.5140696,N,10349.0240193,E,2,41,0.4,19.9037,M,3.7097,M,3.9,0132*40
$GPGST,083155.00,2.227,2.944,2.571,72.256,2.608,2.911,6.389*65
$GPGGA,083156.00,0127.5140737,N,10349.0240001,E,2,41,0.4,19.9380,M,3.7097,M,1.4,0132*43
$GPGST,083156.00,2.216,2.940,2.569,72.150,2.606,2.907,6.383*6F
$GPGGA,083157.00,0127.5140765,N,10349.0239846,E,2,41,0.4,19.9724,M,3.7097,M,2.4,0132*49
$GPGST,083157.00,2.190,2.939,2.566,72.313,2.603,2.907,6.381*60
$GPGGA,083158.00,0127.5140800,N,10349.0239711,E,2,41,0.4,20.0041,M,3.7097,M,3.4,0132*41
$GPGST,083158.00,2.177,2.941,2.567,72.330,2.604,2.908,6.384*64
$GPGGA,083159.00,0127.5140835,N,10349.0239557,E,2,41,0.4,20.0342,M,3.7097,M,4.4,0132*41
$GPGST,083159.00,2.182,2.942,2.567,72.364,2.604,2.910,6.386*66
$GPGGA,083200.00,0127.5140870,N,10349.0239417,E,2,41,0.4,20.0649,M,3.7097,M,5.4,0132*45
$GPGST,083200.00,2.156,2.944,2.568,72.400,2.604,2.911,6.389*62
$GPGGA,083201.00,0127.5140885,N,10349.0239278,E,2,41,0.4,20.0953,M,3.7097,M,3.9,0132*4E
$GPGST,083201.00,2.141,2.943,2.568,72.242,2.605,2.910,6.389*62
$GPGGA,083202.00,0127.5140902,N,10349.0239167,E,2,41,0.4,20.1233,M,3.7097,M,1.4,0132*4D
$GPGST,083202.00,2.130,2.940,2.566,72.130,2.603,2.907,6.383*66
$GPGGA,083203.00,0127.5140918,N,10349.0239036,E,2,40,0.4,20.1505,M,3.7097,M,2.4,0132*42
$GPGST,083203.00,2.120,2.939,2.564,72.285,2.601,2.906,6.381*66
$GPGGA,083204.00,0127.5140949,N,10349.0238891,E,2,41,0.4,20.1732,M,3.7097,M,3.4,0132*43
$GPGST,083204.00,2.094,2.940,2.565,72.295,2.602,2.908,6.384*69
$GPGGA,083205.00,0127.5140949,N,10349.0238780,E,2,41,0.4,20.2033,M,3.7097,M,4.4,0132*4F
$GPGST,083205.00,2.096,2.942,2.565,72.306,2.602,2.909,6.387*61
$GPGGA,083206.00,0127.5140947,N,10349.0238669,E,2,41,0.4,20.2208,M,3.7096,M,5.4,0132*4E
$GPGST,083206.00,2.081,2.943,2.567,72.318,2.604,2.911,6.391*60
$GPGGA,083207.00,0127.5140967,N,10349.0238578,E,2,41,0.4,20.2376,M,3.7096,M,3.9,0132*4D
$GPGST,083207.00,2.061,2.943,2.567,72.164,2.605,2.910,6.390*67
$GPGGA,083208.00,0127.5140976,N,10349.0238493,E,2,41,0.4,20.2520,M,3.7096,M,1.4,0132*4C
$GPGST,083208.00,2.028,2.939,2.565,72.053,2.603,2.906,6.384*6B
$GPGGA,083209.00,0127.5140963,N,10349.0238422,E,2,42,0.4,20.2520,M,3.7096,M,2.4,0132*43
$GPGST,083209.00,2.183,2.922,2.537,76.600,2.559,2.902,6.348*6B
$GPGGA,083210.00,0127.5140935,N,10349.0238332,E,2,42,0.4,20.2548,M,3.7096,M,3.4,0132*41
$GPGST,083210.00,2.173,2.922,2.530,75.868,2.555,2.900,6.348*66
$GPGGA,083211.00,0127.5140905,N,10349.0238214,E,2,42,0.4,20.2602,M,3.7096,M,4.4,0132*4C
$GPGST,083211.00,2.257,2.791,2.531,75.352,2.549,2.775,6.351*6E
$GPGGA,083212.00,0127.5140838,N,10349.0238037,E,2,42,0.4,20.2673,M,3.7096,M,5.4,0132*44
$GPGST,083212.00,2.270,2.626,2.533,73.874,2.541,2.619,6.352*6E
$GPGGA,083213.00,0127.5140784,N,10349.0237880,E,2,42,0.4,20.2736,M,3.7096,M,3.9,0132*4D
$GPGST,083213.00,2.242,2.622,2.532,71.068,2.541,2.613,6.352*66
$GPGGA,083214.00,0127.5140729,N,10349.0237731,E,2,42,0.4,20.2827,M,3.7096,M,1.4,0132*48
$GPGST,083214.00,2.247,2.620,2.529,70.736,2.539,2.610,6.346*68
$GPGGA,083215.00,0127.5140663,N,10349.0237584,E,2,42,0.4,20.2860,M,3.7096,M,2.4,0132*4A
$GPGST,083215.00,2.206,2.618,2.527,71.382,2.537,2.609,6.343*60
$GPGGA,083216.00,0127.5140606,N,10349.0237431,E,2,42,0.4,20.2900,M,3.7096,M,3.4,0132*43
$GPGST,083216.00,2.256,2.620,2.528,71.378,2.538,2.610,6.346*65
$GPGGA,083217.00,0127.5140561,N,10349.0237272,E,2,42,0.4,20.2923,M,3.7096,M,4.4,0132*47
$GPGST,083217.00,2.271,2.621,2.529,71.387,2.539,2.612,6.350*65
$GPGGA,083218.00,0127.5140518,N,10349.0237135,E,2,42,0.4,20.2917,M,3.7096,M,5.4,0132*40
$GPGST,083218.00,2.274,2.623,2.530,71.404,2.540,2.613,6.353*65
$GPGGA,083219.00,0127.5140466,N,10349.0237006,E,2,42,0.4,20.3007,M,3.7096,M,3.9,0132*4A
$GPGST,083219.00,2.280,2.623,2.530,70.773,2.541,2.613,6.353*6C
$GPGGA,083220.00,0127.5140423,N,10349.0236893,E,2,42,0.4,20.3014,M,3.7096,M,1.4,0132*49
$GPGST,083220.00,2.283,2.619,2.528,70.390,2.539,2.609,6.347*6D
$GPGGA,083221.00,0127.5140386,N,10349.0236788,E,2,42,0.4,20.3032,M,3.7096,M,2.4,0132*42
$GPGST,083221.00,2.291,2.632,2.526,71.771,2.537,2.622,6.345*67
$GPGGA,083222.00,0127.5140360,N,10349.0236696,E,2,42,0.4,20.3091,M,3.7096,M,3.4,0132*4F
$GPGST,083222.00,2.275,2.652,2.527,72.766,2.538,2.641,6.348*6B
$GPGGA,083223.00,0127.5140337,N,10349.0236621,E,2,42,0.4,20.3136,M,3.7096,M,4.4,0132*4B
$GPGST,083223.00,2.266,2.653,2.528,72.579,2.539,2.642,6.351*60
$GPGGA,083224.00,0127.5140308,N,10349.0236512,E,2,42,0.4,20.2849,M,3.7096,M,5.4,0132*42
$GPGST,083224.00,3.161,2.647,2.510,67.116,2.532,2.627,6.265*6B
$GPGGA,083225.00,0127.5140317,N,10349.0236365,E,2,42,0.4,20.2386,M,3.7096,M,3.9,0132*48
$GPGST,083225.00,3.145,2.638,2.486,61.688,2.521,2.605,6.152*69
$GPGGA,083226.00,0127.5140325,N,10349.0236214,E,2,42,0.4,20.1906,M,3.7096,M,1.4,0132*43
$GPGST,083226.00,3.153,2.634,2.481,60.565,2.519,2.598,6.146*6E
$GPGGA,083227.00,0127.5140325,N,10349.0236036,E,2,42,0.4,20.1434,M,3.7096,M,2.4,0132*4F
$GPGST,083227.00,3.164,2.633,2.480,61.000,2.517,2.598,6.144*66
$GPGGA,083228.00,0127.5140338,N,10349.0235881,E,2,42,0.4,20.0913,M,3.7096,M,3.4,0132*43
$GPGST,083228.00,3.131,2.635,2.481,61.091,2.517,2.599,6.144*67
$GPGGA,083229.00,0127.5140341,N,10349.0235734,E,2,42,0.4,20.0499,M,3.7096,M,4.4,0132*45
$GPGST,083229.00,3.104,2.636,2.481,61.156,2.518,2.601,6.144*64
$GPGGA,083230.00,0127.5140345,N,10349.0235613,E,2,42,0.4,20.0071,M,3.7096,M,5.4,0132*4E
$GPGST,083230.00,3.068,2.638,2.482,61.261,2.519,2.603,6.147*6D
$GPGGA,083231.00,0127.5140362,N,10349.0235490,E,2,42,0.4,19.9701,M,3.7096,M,3.9,0132*4B
$GPGST,083231.00,3.041,2.638,2.482,60.830,2.520,2.602,6.147*63
$GPGGA,083232.00,0127.5140361,N,10349.0235379,E,2,42,0.4,19.9303,M,3.7096,M,1.4,0132*42
$GPGST,083232.00,2.983,2.634,2.480,60.411,2.518,2.597,6.141*65
$GPGGA,083233.00,0127.5140373,N,10349.0235278,E,2,42,0.4,19.8918,M,3.7096,M,2.4,0132*42
$GPGST,083233.00,2.943,2.633,2.478,60.854,2.516,2.597,6.139*64
$GPGGA,083234.00,0127.5140384,N,10349.0235180,E,2,42,0.4,19.8550,M,3.7096,M,3.4,0132*48
$GPGST,083234.00,2.959,2.634,2.479,60.926,2.516,2.598,6.142*69
$GPGGA,083235.00,0127.5140383,N,10349.0235073,E,2,42,0.4,19.8171,M,3.7096,M,4.4,0132*43
$GPGST,083235.00,2.951,2.636,2.480,61.014,2.517,2.600,6.145*69
$GPGGA,083236.00,0127.5140365,N,10349.0234985,E,2,42,0.4,19.7826,M,3.7096,M,5.4,0132*4C
$GPGST,083236.00,2.953,2.638,2.481,61.106,2.518,2.602,6.148*65
$GPGGA,083237.00,0127.5140365,N,10349.0234892,E,2,42,0.4,19.7544,M,3.7096,M,3.9,0132*48
$GPGST,083237.00,2.947,2.638,2.481,60.679,2.519,2.601,6.148*6D
$GPGGA,083238.00,0127.5140358,N,10349.0234803,E,2,42,0.4,19.7243,M,3.7096,M,1.4,0132*4E
$GPGST,083238.00,2.936,2.628,2.458,64.312,2.490,2.596,6.119*64
$GPGGA,083239.00,0127.5140354,N,10349.0234706,E,2,42,0.4,19.6898,M,3.7096,M,2.4,0132*47
$GPGST,083239.00,2.904,2.621,2.432,68.668,2.457,2.596,6.091*6F
$GPGGA,083240.00,0127.5140357,N,10349.0234623,E,2,42,0.4,19.6626,M,3.7096,M,3.4,0132*46
$GPGST,083240.00,2.874,2.623,2.432,68.395,2.459,2.598,6.094*67
$GPGGA,083241.00,0127.5140363,N,10349.0234538,E,2,42,0.4,19.6387,M,3.7096,M,4.4,0132*40
$GPGST,083241.00,2.890,2.624,2.433,68.417,2.459,2.599,6.097*65
$GPGGA,083242.00,0127.5140368,N,10349.0234447,E,2,42,0.4,19.6124,M,3.7096,M,5.4,0132*4B
$GPGST,083242.00,2.919,2.627,2.434,68.462,2.461,2.601,6.100*66
$GPGGA,083243.00,0127.5140364,N,10349.0234364,E,2,42,0.4,19.5897,M,3.7096,M,3.9,0132*49
$GPGST,083243.00,2.951,2.626,2.434,68.172,2.461,2.600,6.100*6F
$GPGGA,083244.00,0127.5140364,N,10349.0234292,E,2,42,0.4,19.5702,M,3.7096,M,1.4,0132*4A
$GPGST,083244.00,2.996,2.627,2.457,64.091,2.490,2.596,6.121*66
$GPGGA,083245.00,0127.5140363,N,10349.0234210,E,2,42,0.4,19.5498,M,3.7096,M,2.4,0132*45
$GPGST,083245.00,3.022,2.633,2.487,58.435,2.528,2.594,6.152*69
$GPGGA,083246.00,0127.5140366,N,10349.0234143,E,2,42,0.4,19.5340,M,3.7096,M,3.4,0132*45
$GPGST,083246.00,3.008,2.633,2.485,58.755,2.525,2.594,6.151*6B
$GPGGA,083247.00,0127.5140370,N,10349.0234085,E,2,42,0.4,19.5119,M,3.7096,M,4.4,0132*41
$GPGST,083247.00,2.986,2.634,2.486,58.856,2.526,2.595,6.154*6B
$GPGGA,083248.00,0127.5140370,N,10349.0234016,E,2,42,0.4,19.4983,M,3.7096,M,5.4,0132*4F
$GPGST,083248.00,2.985,2.636,2.487,58.962,2.527,2.597,6.158*6D
$GPGGA,083249.00,0127.5140368,N,10349.0233970,E,2,42,0.4,19.4788,M,3.7096,M,3.9,0132*47
$GPGST,083249.00,2.971,2.636,2.487,58.502,2.528,2.596,6.157*6C
$GPGGA,083250.00,0127.5140366,N,10349.0233910,E,2,42,0.4,19.4602,M,3.7096,M,1.4,0132*4B
$GPGST,083250.00,2.967,2.632,2.484,58.067,2.526,2.591,6.152*6E
$GPGGA,083251.00,0127.5140358,N,10349.0233865,E,2,42,0.4,19.4439,M,3.7096,M,2.4,0132*4D
$GPGST,083251.00,2.965,2.631,2.482,58.529,2.524,2.591,6.150*67
$GPGGA,083252.00,0127.5140359,N,10349.0233809,E,2,42,0.4,19.4289,M,3.7096,M,3.4,0132*49
$GPGST,083252.00,2.958,2.632,2.483,58.623,2.525,2.593,6.153*61
$GPGGA,083253.00,0127.5140358,N,10349.0233751,E,2,42,0.4,19.4115,M,3.7096,M,4.4,0132*4A
$GPGST,083253.00,2.956,2.634,2.484,58.717,2.526,2.595,6.156*69
$GPGGA,083254.00,0127.5140355,N,10349.0233696,E,2,42,0.4,19.3939,M,3.7096,M,5.4,0132*4A
$GPGST,083254.00,2.931,2.636,2.485,58.814,2.527,2.597,6.159*6C
$GPGGA,083255.00,0127.5140351,N,10349.0233664,E,2,42,0.4,19.3787,M,3.7096,M,3.9,0132*42
$GPGST,083255.00,2.949,2.636,2.485,58.376,2.527,2.595,6.158*6E
$GPGGA,083256.00,0127.5140354,N,10349.0233609,E,2,42,0.4,19.3635,M,3.7096,M,1.4,0132*48
$GPGST,083256.00,2.942,2.632,2.482,57.936,2.525,2.591,6.153*69
$GPGGA,083257.00,0127.5140360,N,10349.0233564,E,2,42,0.4,19.3456,M,3.7096,M,2.4,0132*42
$GPGST,083257.00,2.951,2.631,2.481,58.394,2.523,2.590,6.151*62
$GPGGA,083258.00,0127.5140360,N,10349.0233520,E,2,42,0.4,19.3261,M,3.7096,M,3.4,0132*4E
$GPGST,083258.00,2.942,2.632,2.482,58.487,2.524,2.592,6.154*6A
$GPGGA,083259.00,0127.5140353,N,10349.0233485,E,2,42,0.4,19.3082,M,3.7096,M,4.4,0132*49
$GPGST,083259.00,2.941,2.634,2.483,58.572,2.525,2.594,6.156*61
$GPGGA,083300.00,0127.5140344,N,10349.0233454,E,2,42,0.4,19.2928,M,3.7096,M,5.4,0132*47
$GPGST,083300.00,2.943,2.636,2.484,58.684,2.526,2.596,6.160*65
$GPGGA,083301.00,0127.5140339,N,10349.0233409,E,2,42,0.4,19.2765,M,3.7096,M,3.9,0132*48
$GPGST,083301.00,2.970,2.636,2.484,58.244,2.527,2.594,6.159*65
$GPGGA,083302.00,0127.5140347,N,10349.0233364,E,2,42,0.4,19.2611,M,3.7096,M,1.4,0132*43
$GPGST,083302.00,2.952,2.624,2.460,62.551,2.495,2.590,6.128*6F
$GPGGA,083303.00,0127.5140349,N,10349.0233304,E,2,42,0.4,19.2452,M,3.7096,M,2.4,0132*4C
$GPGST,083303.00,2.961,2.615,2.430,67.922,2.457,2.590,6.096*6E
$GPGGA,083304.00,0127.5140351,N,10349.0233260,E,2,42,0.4,19.2282,M,3.7096,M,3.4,0132*4B
$GPGST,083304.00,2.935,2.617,2.428,67.792,2.456,2.591,6.097*67
$GPGGA,083305.00,0127.5140351,N,10349.0233230,E,2,42,0.4,19.2177,M,3.7096,M,4.4,0132*41
$GPGST,083305.00,2.926,2.619,2.429,67.826,2.457,2.593,6.100*67
$GPGGA,083306.00,0127.5140356,N,10349.0233185,E,2,42,0.4,19.2105,M,3.7096,M,5.4,0132*4C
$GPGST,083306.00,2.920,2.621,2.430,67.874,2.458,2.595,6.103*6C
$GPGGA,083307.00,0127.5140353,N,10349.0233159,E,2,42,0.4,19.2040,M,3.7096,M,3.9,0132*42
$GPGST,083307.00,2.947,2.620,2.430,67.587,2.459,2.593,6.103*6B
$GPGGA,083308.00,0127.5140364,N,10349.0233131,E,2,42,0.4,19.1949,M,3.7096,M,1.4,0132*4B
$GPGST,083308.00,2.995,2.616,2.428,67.289,2.457,2.589,6.098*68
$GPGGA,083309.00,0127.5140376,N,10349.0233104,E,2,39,0.4,19.1826,M,3.7096,M,2.4,0132*48
$GPGST,083309.00,3.056,2.615,2.427,67.539,2.455,2.589,6.096*62
$GPGGA,083310.00,0127.5140375,N,10349.0233076,E,2,39,0.4,19.1649,M,3.7096,M,3.4,0132*41
$GPGST,083310.00,3.044,2.698,2.436,74.044,2.457,2.679,6.377*63
$GPGGA,083311.00,0127.5140386,N,10349.0233060,E,2,39,0.4,19.1473,M,3.7096,M,4.4,0132*47
$GPGST,083311.00,3.079,2.687,2.435,73.026,2.457,2.667,6.337*69
$GPGGA,083312.00,0127.5140388,N,10349.0233011,E,2,39,0.4,19.1259,M,3.7096,M,5.4,0132*43
$GPGST,083312.00,3.111,2.689,2.436,73.007,2.458,2.668,6.339*65
$GPGGA,083313.00,0127.5140388,N,10349.0232972,E,2,39,0.4,19.1068,M,3.7096,M,3.9,0132*44
$GPGST,083313.00,3.113,2.688,2.436,72.802,2.459,2.667,6.338*64
$GPGGA,083314.00,0127.5140405,N,10349.0232928,E,2,39,0.4,19.0851,M,3.7096,M,1.4,0132*42
$GPGST,083314.00,3.080,2.683,2.434,72.601,2.457,2.662,6.332*6D
$GPGGA,083315.00,0127.5140407,N,10349.0232895,E,2,39,0.4,19.0724,M,3.7096,M,2.4,0132*48
$GPGST,083315.00,3.071,2.682,2.432,72.777,2.455,2.661,6.330*66
$GPGGA,083316.00,0127.5140409,N,10349.0232874,E,2,39,0.4,19.0566,M,3.7096,M,3.4,0132*4F
$GPGST,083316.00,3.060,2.687,2.434,73.152,2.456,2.667,6.334*67
$GPGGA,083317.00,0127.5140421,N,10349.0232845,E,2,39,0.4,19.0378,M,3.7096,M,4.4,0132*48
$GPGST,083317.00,3.001,2.694,2.436,73.635,2.457,2.674,6.339*69
$GPGGA,083318.00,0127.5140429,N,10349.0232817,E,2,39,0.4,19.0264,M,3.7096,M,5.4,0132*45
$GPGST,083318.00,3.004,2.696,2.437,73.629,2.458,2.676,6.343*6D
$GPGGA,083319.00,0127.5140432,N,10349.0232798,E,2,39,0.4,19.0135,M,3.7096,M,3.9,0132*4A
$GPGST,083319.00,3.039,2.695,2.437,73.519,2.459,2.676,6.342*61
$GPGGA,083320.00,0127.5140460,N,10349.0232775,E,2,39,0.4,18.9945,M,3.7096,M,1.4,0132*4C
$GPGST,083320.00,3.041,2.690,2.435,73.324,2.457,2.670,6.336*60
$GPGGA,083321.00,0127.5140467,N,10349.0232744,E,2,39,0.4,18.9795,M,3.7096,M,2.4,0132*48
$GPGST,083321.00,3.029,2.690,2.434,73.510,2.456,2.670,6.334*6C
$GPGGA,083322.00,0127.5140485,N,10349.0232714,E,2,39,0.4,18.9632,M,3.7096,M,3.4,0132*4F
$GPGST,083322.00,3.006,2.692,2.435,73.541,2.456,2.672,6.338*6B
$GPGGA,083323.00,0127.5140485,N,10349.0232691,E,2,39,0.4,18.9478,M,3.7096,M,4.4,0132*49
$GPGST,083323.00,2.967,2.694,2.436,73.578,2.457,2.674,6.341*63
$GPGGA,083324.00,0127.5140479,N,10349.0232670,E,2,39,0.4,18.9385,M,3.7096,M,5.4,0132*46
$GPGST,083324.00,2.918,2.697,2.437,73.617,2.458,2.677,6.345*6C
$GPGGA,083325.00,0127.5140486,N,10349.0232651,E,2,39,0.4,18.9286,M,3.7096,M,3.9,0132*4D
$GPGST,083325.00,2.881,2.695,2.437,73.427,2.459,2.675,6.344*6D
$GPGGA,083326.00,0127.5140495,N,10349.0232631,E,2,39,0.4,18.9196,M,3.7096,M,1.4,0132*47
$GPGST,083326.00,2.911,2.691,2.435,73.238,2.457,2.670,6.338*68
$GPGGA,083327.00,0127.5140509,N,10349.0232607,E,2,39,0.4,18.9041,M,3.7096,M,2.4,0132*4F
$GPGST,083327.00,2.925,2.690,2.433,73.424,2.455,2.670,6.337*6F
$GPGGA,083328.00,0127.5140507,N,10349.0232597,E,2,39,0.4,18.8948,M,3.7096,M,3.4,0132*44
$GPGST,083328.00,2.915,2.692,2.434,73.455,2.456,2.672,6.340*61
$GPGGA,083329.00,0127.5140518,N,10349.0232583,E,2,39,0.4,18.8862,M,3.7096,M,4.4,0132*40
$GPGST,083329.00,2.876,2.694,2.435,73.490,2.457,2.674,6.343*6E
$GPGGA,083330.00,0127.5140524,N,10349.0232564,E,2,39,0.4,18.8722,M,3.7096,M,5.4,0132*44
$GPGST,083330.00,2.862,2.697,2.436,73.535,2.458,2.677,6.347*65
$GPGGA,083331.00,0127.5140529,N,10349.0232550,E,2,39,0.4,18.8659,M,3.7096,M,3.9,0132*49
$GPGST,083331.00,2.841,2.696,2.436,73.344,2.459,2.675,6.346*66
$GPGGA,083332.00,0127.5140539,N,10349.0232526,E,2,39,0.4,18.8629,M,3.7096,M,1.4,0132*42
$GPGST,083332.00,2.846,2.691,2.434,73.152,2.457,2.671,6.340*6E
$GPGGA,083333.00,0127.5140542,N,10349.0232524,E,2,39,0.4,18.8561,M,3.7096,M,2.4,0132*41
$GPGST,083333.00,2.849,2.691,2.433,73.339,2.455,2.670,6.339*65
$GPGGA,083334.00,0127.5140546,N,10349.0232503,E,2,39,0.4,18.8453,M,3.7096,M,3.4,0132*46
$GPGST,083334.00,2.836,2.693,2.434,73.368,2.456,2.672,6.342*66
$GPGGA,083335.00,0127.5140547,N,10349.0232495,E,2,39,0.4,18.8355,M,3.7096,M,4.4,0132*4E
$GPGST,083335.00,2.873,2.695,2.434,73.409,2.457,2.674,6.345*60
$GPGGA,083336.00,0127.5140564,N,10349.0232456,E,2,39,0.4,18.8213,M,3.7096,M,5.4,0132*41
$GPGST,083336.00,2.911,2.697,2.435,73.453,2.458,2.677,6.349*6A
$GPGGA,083337.00,0127.5140563,N,10349.0232445,E,2,39,0.4,18.8074,M,3.7096,M,3.9,0132*4D
$GPGST,083337.00,2.929,2.696,2.436,73.261,2.458,2.676,6.349*64
$GPGGA,083338.00,0127.5140564,N,10349.0232416,E,2,39,0.4,18.7963,M,3.7096,M,1.4,0132*4C
$GPGST,083338.00,2.978,2.691,2.434,73.068,2.457,2.671,6.342*62
$GPGGA,083339.00,0127.5140560,N,10349.0232425,E,2,39,0.4,18.7954,M,3.7096,M,2.4,0132*4E
$GPGST,083339.00,3.224,2.675,2.391,67.463,2.435,2.635,6.272*6E
$GPGGA,083340.00,0127.5140549,N,10349.0232438,E,2,39,0.4,18.8032,M,3.7096,M,3.4,0132*40
$GPGST,083340.00,3.261,2.660,2.339,62.401,2.412,2.595,6.191*64
$GPGGA,083341.00,0127.5140531,N,10349.0232451,E,2,39,0.4,18.8167,M,3.7096,M,4.4,0132*47
$GPGST,083341.00,3.279,2.660,2.337,61.881,2.412,2.592,6.193*60
$GPGGA,083342.00,0127.5140514,N,10349.0232479,E,2,39,0.4,18.8301,M,3.7096,M,5.4,0132*4A
$GPGST,083342.00,3.253,2.663,2.338,61.942,2.414,2.594,6.197*6D
$GPGGA,083343.00,0127.5140487,N,10349.0232495,E,2,39,0.4,18.8414,M,3.7096,M,3.9,0132*4A
$GPGST,083343.00,3.251,2.662,2.338,61.766,2.414,2.593,6.197*60
$GPGGA,083344.00,0127.5140481,N,10349.0232506,E,2,39,0.4,18.8481,M,3.7096,M,1.4,0132*43
$GPGST,083344.00,3.247,2.658,2.336,61.544,2.413,2.588,6.190*6F
$GPGGA,083345.00,0127.5140470,N,10349.0232524,E,2,39,0.4,18.8573,M,3.7096,M,2.4,0132*43
$GPGST,083345.00,3.200,2.658,2.334,61.735,2.411,2.589,6.189*60
$GPGGA,083346.00,0127.5140457,N,10349.0232544,E,2,39,0.4,18.8696,M,3.7096,M,3.4,0132*4A
$GPGST,083346.00,3.224,2.663,2.336,61.870,2.412,2.594,6.198*6E
$GPGGA,083347.00,0127.5140434,N,10349.0232557,E,2,39,0.4,18.8845,M,3.7096,M,4.4,0132*4B
$GPGST,083347.00,3.203,2.667,2.338,61.985,2.414,2.598,6.210*62
$GPGGA,083419.00,0127.5130420,N,10349.0244565,E,1,10,1.0,19.3770,M,3.7097,M,,*64
$GPGST,083419.00,3.884,6.802,4.831,20.509,6.592,5.114,16.683*58
$GPGGA,083420.00,0127.5131425,N,10349.0241057,E,1,19,0.7,18.0698,M,3.7097,M,,*61
$GPGST,083420.00,1.489,6.011,4.461,21.230,5.831,4.694,14.927*54
$GPGGA,083421.00,0127.5132698,N,10349.0238056,E,1,21,0.6,17.3869,M,3.7097,M,,*6E
$GPGST,083421.00,1.999,4.831,3.691,27.887,4.605,3.968,12.264*52
$GPGGA,083422.00,0127.5134418,N,10349.0237819,E,1,21,0.6,18.0979,M,3.7097,M,,*61
$GPGST,083422.00,2.565,4.261,3.394,29.657,4.066,3.625,11.040*5D
$GPGGA,083423.00,0127.5134283,N,10349.0237404,E,1,21,0.6,18.4656,M,3.7097,M,,*62
$GPGST,083423.00,2.624,2.415,2.029,307.552,2.181,2.279,5.974*5D
$GPGGA,083424.00,0127.5132965,N,10349.0235727,E,1,21,0.6,18.0982,M,3.7096,M,,*63
$GPGST,083424.00,2.000,1.750,1.601,40.344,1.689,1.665,4.859*6C
$GPGGA,083425.00,0127.5130488,N,10349.0232138,E,1,21,0.6,17.4819,M,3.7096,M,,*69
$GPGST,083425.00,1.008,0.877,0.779,56.319,0.810,0.848,2.481*6D
$GPGGA,083426.00,0127.5129344,N,10349.0230340,E,1,21,0.6,17.2382,M,3.7096,M,,*65
$GPGST,083426.00,1.005,0.871,0.755,55.944,0.793,0.836,2.423*6F
$GPGGA,083427.00,0127.5128798,N,10349.0229527,E,1,33,0.5,17.0470,M,3.7096,M,,*67
$GPGST,083427.00,1.783,0.868,0.745,56.161,0.785,0.831,2.385*69
$GPGGA,083428.00,0127.5128487,N,10349.0229055,E,1,33,0.5,16.8454,M,3.7096,M,,*6A
$GPGST,083428.00,1.813,0.857,0.739,58.100,0.774,0.826,2.345*6A
$GPGGA,083429.00,0127.5128302,N,10349.0228698,E,1,33,0.5,16.6594,M,3.7096,M,,*64
$GPGST,083429.00,1.743,0.857,0.738,57.570,0.774,0.825,2.346*6C
$GPGGA,083430.00,0127.5128169,N,10349.0228432,E,1,33,0.5,16.5133,M,3.7096,M,,*6B
$GPGST,083430.00,1.715,0.857,0.737,57.790,0.773,0.825,2.341*64
$GPGGA,083431.00,0127.5128127,N,10349.0228240,E,1,33,0.5,16.4392,M,3.7096,M,,*6B
$GPGST,083431.00,1.725,0.854,0.736,58.205,0.771,0.823,2.326*67
$GPGGA,083432.00,0127.5128201,N,10349.0228041,E,1,33,0.5,16.3979,M,3.7096,M,,*64
$GPGST,083432.00,1.715,0.827,0.717,65.132,0.738,0.809,2.207*6E
$GPGGA,083433.00,0127.5128311,N,10349.0227917,E,1,33,0.5,16.3913,M,3.7096,M,,*6C
$GPGST,083433.00,1.727,0.824,0.710,64.834,0.732,0.804,2.198*66
$GPGGA,083434.00,0127.5128382,N,10349.0227819,E,1,33,0.5,16.3856,M,3.7096,M,,*6E
$GPGST,083434.00,1.740,0.824,0.711,64.510,0.733,0.804,2.196*65
$GPGGA,083435.00,0127.5128436,N,10349.0227759,E,1,33,0.5,16.3890,M,3.7096,M,,*66
$GPGST,083435.00,1.758,0.825,0.711,64.374,0.733,0.805,2.198*67
$GPGGA,083436.00,0127.5128456,N,10349.0227737,E,1,33,0.5,16.3963,M,3.7096,M,,*66
$GPGST,083436.00,1.779,0.825,0.710,64.453,0.733,0.805,2.197*6B
$GPGGA,083437.00,0127.5128480,N,10349.0227763,E,1,33,0.5,16.4145,M,3.7096,M,,*66
$GPGST,083437.00,1.752,0.822,0.710,64.643,0.732,0.803,2.197*60
$GPGGA,083438.00,0127.5128477,N,10349.0227774,E,1,33,0.5,16.4277,M,3.7096,M,,*65
$GPGST,083438.00,1.763,0.826,0.711,65.059,0.733,0.807,2.198*6E
$GPGGA,083439.00,0127.5128495,N,10349.0227785,E,1,40,0.4,16.4466,M,3.7096,M,,*65
$GPGST,083439.00,2.660,0.824,0.710,64.599,0.733,0.805,2.193*6C
$GPGGA,083440.00,0127.5128506,N,10349.0227792,E,1,40,0.4,16.4615,M,3.7096,M,,*60
$GPGST,083440.00,2.609,0.824,0.711,63.954,0.734,0.803,2.190*64
$GPGGA,083441.00,0127.5128512,N,10349.0227815,E,1,40,0.4,16.4781,M,3.7096,M,,*68
$GPGST,083441.00,2.553,0.823,0.712,62.970,0.737,0.802,2.195*6D
$GPGGA,083442.00,0127.5128514,N,10349.0227828,E,1,40,0.4,16.4899,M,3.7096,M,,*65
$GPGST,083442.00,2.603,0.824,0.711,64.060,0.734,0.803,2.189*6D
$GPGGA,083443.00,0127.5128510,N,10349.0227823,E,1,40,0.4,16.4850,M,3.7096,M,,*6E
$GPGST,083443.00,2.606,0.820,0.708,64.148,0.731,0.800,2.173*6D
$GPGGA,083444.00,0127.5128515,N,10349.0227812,E,1,40,0.4,16.4813,M,3.7096,M,,*69
$GPGST,083444.00,2.670,0.819,0.707,63.421,0.731,0.798,2.170*6E
$GPGGA,083445.00,0127.5128518,N,10349.0227846,E,1,42,0.4,16.4878,M,3.7096,M,,*6B
$GPGST,083445.00,2.569,0.816,0.703,64.914,0.725,0.796,2.141*6A
$GPGGA,083446.00,0127.5128520,N,10349.0227853,E,1,42,0.4,16.4901,M,3.7096,M,,*68
$GPGST,083446.00,2.557,0.808,0.699,67.121,0.716,0.793,2.105*61
$GPGGA,083447.00,0127.5128527,N,10349.0227872,E,1,42,0.4,16.4991,M,3.7096,M,,*64
$GPGST,083447.00,2.576,0.810,0.699,67.051,0.717,0.794,2.104*6B
$GPGGA,083448.00,0127.5128548,N,10349.0227908,E,1,42,0.4,16.5157,M,3.7096,M,,*6D
$GPGST,083448.00,2.555,0.810,0.699,66.522,0.718,0.794,2.105*6B
$GPGGA,083449.00,0127.5128556,N,10349.0227928,E,1,43,0.4,16.5186,M,3.7096,M,,*6C
$GPGST,083449.00,2.469,0.791,0.690,75.334,0.697,0.785,2.010*6B
$GPGGA,083450.00,0127.5128533,N,10349.0227923,E,1,43,0.4,16.5070,M,3.7096,M,,*64
$GPGST,083450.00,2.465,0.774,0.669,87.535,0.670,0.774,1.890*6C
$GPGGA,083451.00,0127.5128501,N,10349.0227928,E,1,43,0.4,16.5029,M,3.7096,M,,*63
$GPGST,083451.00,2.433,0.768,0.667,85.892,0.667,0.767,1.883*69
$GPGGA,083452.00,0127.5128494,N,10349.0227906,E,1,43,0.4,16.4892,M,3.7096,M,,*68
$GPGST,083452.00,2.438,0.766,0.663,86.926,0.664,0.766,1.870*68
$GPGGA,083453.00,0127.5128479,N,10349.0227901,E,1,43,0.4,16.4716,M,3.7096,M,,*6E
$GPGST,083453.00,2.395,0.768,0.666,86.814,0.666,0.768,1.879*67
$GPGGA,083454.00,0127.5128456,N,10349.0227891,E,1,43,0.4,16.4575,M,3.7096,M,,*6B
$GPGST,083454.00,2.373,0.768,0.665,86.929,0.665,0.767,1.877*66
$GPGGA,083455.00,0127.5128435,N,10349.0227881,E,1,44,0.4,16.4388,M,3.7096,M,,*6D
$GPGST,083455.00,2.320,0.761,0.665,86.361,0.665,0.761,1.878*67
$GPGGA,083456.00,0127.5128421,N,10349.0227872,E,1,44,0.4,16.4243,M,3.7096,M,,*61
$GPGST,083456.00,2.287,0.761,0.666,85.898,0.666,0.760,1.883*63
$GPGGA,083457.00,0127.5128402,N,10349.0227868,E,1,44,0.4,16.4165,M,3.7096,M,,*6D
$GPGST,083457.00,2.269,0.762,0.666,86.098,0.666,0.762,1.878*6C
$GPGGA,083458.00,0127.5128394,N,10349.0227846,E,1,44,0.4,16.4039,M,3.7096,M,,*6E
$GPGST,083458.00,2.251,0.764,0.666,86.529,0.666,0.764,1.882*62
$GPGGA,083459.00,0127.5135309,N,10349.0230616,E,2,44,0.4,17.2906,M,3.7096,M,4.0,0122*40
$GPGST,083459.00,2.657,3.164,2.631,290.821,2.704,3.101,6.553*53
$GPGGA,083500.00,0127.5137056,N,10349.0231127,E,2,44,0.4,17.9974,M,3.7096,M,1.7,0122*4E
$GPGST,083500.00,2.483,3.164,2.631,290.821,2.704,3.101,6.553*55
$GPGGA,083501.00,0127.5138082,N,10349.0231354,E,2,44,0.4,18.6661,M,3.7096,M,2.7,0122*47
$GPGST,083501.00,2.440,3.163,2.631,290.820,2.704,3.101,6.554*5A
$GPGGA,083502.00,0127.5138518,N,10349.0231455,E,2,44,0.4,19.0891,M,3.7096,M,3.7,0122*43
$GPGST,083502.00,2.385,3.163,2.631,290.820,2.704,3.101,6.554*57
$GPGGA,083503.00,0127.5138707,N,10349.0231520,E,2,44,0.4,19.3661,M,3.7096,M,4.7,0122*48
$GPGST,083503.00,2.281,3.163,2.632,290.819,2.704,3.101,6.554*5A
$GPGGA,083504.00,0127.5138841,N,10349.0231543,E,2,44,0.4,19.5966,M,3.7096,M,4.0,0122*4E
$GPGST,083504.00,2.240,3.050,2.617,292.582,2.685,2.990,6.466*52
$GPGGA,083505.00,0127.5138978,N,10349.0231534,E,2,44,0.4,19.7785,M,3.7096,M,1.7,0122*47
$GPGST,083505.00,2.223,2.916,2.596,296.221,2.662,2.857,6.359*54
$GPGGA,083506.00,0127.5139048,N,10349.0231561,E,2,44,0.4,19.9020,M,3.7096,M,2.7,0122*4A
$GPGST,083506.00,2.203,2.913,2.596,296.406,2.661,2.853,6.358*55
$GPGGA,083507.00,0127.5139095,N,10349.0231549,E,2,44,0.4,19.9862,M,3.7096,M,3.7,0122*4E
$GPGST,083507.00,2.178,2.913,2.596,296.405,2.661,2.853,6.358*58
$GPGGA,083508.00,0127.5139146,N,10349.0231530,E,2,44,0.4,20.0609,M,3.7096,M,3.0,0122*47
$GPGST,083508.00,2.181,2.913,2.596,296.398,2.661,2.853,6.358*52
$GPGGA,083509.00,0127.5139178,N,10349.0231545,E,2,44,0.4,20.1238,M,3.7096,M,4.0,0122*49
$GPGST,083509.00,2.197,2.913,2.596,296.383,2.661,2.853,6.358*5E
$GPGGA,083510.00,0127.5139233,N,10349.0231536,E,2,44,0.4,20.1707,M,3.7096,M,1.7,0122*42
$GPGST,083510.00,2.213,2.912,2.596,296.367,2.661,2.853,6.358*52
$GPGGA,083511.00,0127.5139253,N,10349.0231543,E,2,44,0.4,20.2188,M,3.7096,M,2.7,0122*46
$GPGST,083511.00,2.251,2.912,2.596,296.360,2.661,2.853,6.359*53
$GPGGA,083512.00,0127.5139255,N,10349.0231498,E,2,44,0.4,20.2658,M,3.7096,M,3.7,0122*4F
$GPGST,083512.00,2.238,2.912,2.596,296.353,2.661,2.853,6.359*5F
$GPGGA,083513.00,0127.5139250,N,10349.0231484,E,2,44,0.4,20.3040,M,3.7096,M,3.0,0122*4F
$GPGST,083513.00,2.239,2.912,2.596,296.347,2.661,2.853,6.359*5A
$GPGGA,083514.00,0127.5139242,N,10349.0231453,E,2,44,0.4,20.3450,M,3.7096,M,4.0,0122*43
$GPGST,083514.00,2.254,2.912,2.596,296.332,2.661,2.853,6.359*54
$GPGGA,083515.00,0127.5139217,N,10349.0231430,E,2,44,0.4,20.3766,M,3.7096,M,1.7,0122*43
$GPGST,083515.00,2.263,2.912,2.596,296.316,2.661,2.853,6.359*57
$GPGGA,083516.00,0127.5139199,N,10349.0231408,E,2,44,0.4,20.4050,M,3.7096,M,2.7,0122*48
$GPGST,083516.00,2.235,2.912,2.596,296.309,2.661,2.853,6.360*53
$GPGGA,083517.00,0127.5139183,N,10349.0231415,E,2,44,0.4,20.4313,M,3.7096,M,2.3,0122*4E
$GPGST,083517.00,2.242,2.912,2.596,296.371,2.662,2.853,6.361*5F
$GPGGA,083518.00,0127.5139176,N,10349.0231387,E,2,44,0.4,20.4570,M,3.7096,M,3.3,0122*45
$GPGST,083518.00,2.249,2.912,2.597,296.463,2.663,2.852,6.362*5D
$GPGGA,083519.00,0127.5139170,N,10349.0231374,E,2,44,0.4,20.4825,M,3.7096,M,1.7,0122*45
$GPGST,083519.00,2.247,2.912,2.597,296.437,2.663,2.852,6.362*53
$GPGGA,083520.00,0127.5139186,N,10349.0231340,E,2,44,0.4,20.5042,M,3.7096,M,2.7,0122*4A
$GPGST,083520.00,2.261,2.912,2.597,296.421,2.662,2.852,6.362*5B
$GPGGA,083521.00,0127.5139196,N,10349.0231311,E,2,44,0.4,20.5263,M,3.7096,M,3.7,0122*4E
$GPGST,083521.00,2.253,2.912,2.597,296.414,2.662,2.852,6.362*5D
$GPGGA,083522.00,0127.5139207,N,10349.0231265,E,2,44,0.4,20.5470,M,3.7096,M,3.0,0122*47
$GPGST,083522.00,2.236,2.912,2.597,296.408,2.662,2.852,6.362*50
$GPGGA,083523.00,0127.5139212,N,10349.0231225,E,2,44,0.4,20.5656,M,3.7096,M,4.0,0122*47
$GPGST,083523.00,2.202,2.912,2.597,296.401,2.662,2.852,6.363*5E
$GPGGA,083524.00,0127.5139202,N,10349.0231200,E,2,44,0.4,20.5795,M,3.7096,M,1.7,0122*4A
$GPGST,083524.00,2.221,2.912,2.597,296.386,2.662,2.852,6.363*50
$GPGGA,083525.00,0127.5139207,N,10349.0231154,E,2,44,0.4,20.5847,M,3.7096,M,2.7,0122*4F
$GPGST,083525.00,2.183,2.912,2.597,296.369,2.662,2.852,6.363*5B
$GPGGA,083526.00,0127.5139203,N,10349.0231110,E,2,44,0.4,20.5965,M,3.7096,M,2.3,0122*4D
$GPGST,083526.00,2.164,2.911,2.597,296.293,2.661,2.852,6.363*55
$GPGGA,083527.00,0127.5139210,N,10349.0231080,E,2,44,0.4,20.5997,M,3.7096,M,3.3,0122*4A
$GPGST,083527.00,2.198,2.911,2.596,296.204,2.660,2.852,6.363*59
$GPGGA,083528.00,0127.5139237,N,10349.0231035,E,2,44,0.4,20.6129,M,3.7096,M,4.3,0122*47
$GPGST,083528.00,2.207,2.911,2.596,296.191,2.660,2.852,6.363*5C
$GPGGA,083529.00,0127.5139241,N,10349.0231003,E,2,44,0.4,20.6217,M,3.7096,M,2.0,0122*49
$GPGST,083529.00,2.200,2.911,2.596,296.176,2.660,2.852,6.363*53
$GPGGA,083530.00,0127.5139241,N,10349.0230971,E,2,44,0.4,20.6321,M,3.7096,M,3.0,0122*49
$GPGST,083530.00,2.194,2.911,2.596,296.160,2.660,2.852,6.363*52
$GPGGA,083531.00,0127.5139257,N,10349.0230948,E,2,44,0.4,20.6374,M,3.7096,M,2.3,0122*47
$GPGST,083531.00,2.190,2.911,2.596,296.152,2.660,2.852,6.363*56
$GPGGA,083532.00,0127.5139248,N,10349.0230944,E,2,44,0.4,20.6447,M,3.7096,M,3.3,0122*40
$GPGST,083532.00,2.154,2.910,2.596,296.146,2.660,2.852,6.364*5E
$GPGGA,083533.00,0127.5139271,N,10349.0230920,E,2,44,0.4,20.6528,M,3.7096,M,4.3,0122*46
$GPGST,083533.00,2.150,2.910,2.596,296.139,2.660,2.852,6.364*53
$GPGGA,083534.00,0127.5139257,N,10349.0230933,E,2,44,0.4,20.6607,M,3.7096,M,2.0,0122*4C
$GPGST,083534.00,2.132,2.910,2.596,296.124,2.660,2.852,6.364*5C
$GPGGA,083535.00,0127.5139271,N,10349.0230936,E,2,44,0.4,20.6671,M,3.7096,M,3.0,0122*4C
$GPGST,083535.00,2.132,2.910,2.596,296.107,2.660,2.852,6.364*5C
$GPGGA,083536.00,0127.5139253,N,10349.0230933,E,2,44,0.4,20.6742,M,3.7096,M,2.3,0122*49
$GPGST,083536.00,2.133,2.910,2.596,296.100,2.660,2.852,6.365*58
$GPGGA,083537.00,0127.5139276,N,10349.0230940,E,2,44,0.4,20.6866,M,3.7096,M,3.3,0122*43
$GPGST,083537.00,2.110,2.910,2.596,296.093,2.660,2.852,6.365*53
$GPGGA,083538.00,0127.5139274,N,10349.0230936,E,2,44,0.4,20.6908,M,3.7096,M,4.3,0122*41
$GPGST,083538.00,2.089,2.910,2.596,296.086,2.660,2.852,6.365*59
$GPGGA,083539.00,0127.5139275,N,10349.0230930,E,2,44,0.4,20.7032,M,3.7096,M,2.0,0122*43
$GPGST,083539.00,2.105,2.909,2.596,296.009,2.659,2.851,6.363*5D
$GPGGA,083540.00,0127.5139287,N,10349.0230933,E,2,44,0.4,20.7135,M,3.7096,M,3.0,0122*44
$GPGST,083540.00,2.105,2.907,2.596,295.918,2.658,2.851,6.360*55
$GPGGA,083541.00,0127.5139280,N,10349.0230933,E,2,44,0.4,20.7240,M,3.7096,M,2.3,0122*41
$GPGST,083541.00,2.110,2.907,2.596,295.907,2.658,2.851,6.361*5F
$GPGGA,083542.00,0127.5139290,N,10349.0230914,E,2,44,0.4,20.7298,M,3.7096,M,3.3,0122*42
$GPGST,083542.00,2.123,2.907,2.596,295.900,2.658,2.850,6.361*5A
$GPGGA,083543.00,0127.5139277,N,10349.0230912,E,2,44,0.4,20.7397,M,3.7096,M,4.3,0122*45
$GPGST,083543.00,2.102,2.907,2.596,295.893,2.658,2.850,6.361*53
$GPGGA,083544.00,0127.5139281,N,10349.0230896,E,2,44,0.4,20.7439,M,3.7096,M,2.0,0122*40
$GPGST,083544.00,2.104,2.906,2.595,296.039,2.658,2.849,6.361*53
$GPGGA,083545.00,0127.5139290,N,10349.0230882,E,2,44,0.4,20.7531,M,3.7096,M,3.0,0122*4C
$GPGST,083545.00,2.092,2.905,2.593,296.226,2.657,2.847,6.361*54
$GPGGA,083546.00,0127.5139289,N,10349.0230852,E,2,44,0.4,20.7530,M,3.7096,M,2.3,0122*49
$GPGST,083546.00,2.095,2.905,2.594,296.215,2.657,2.847,6.362*54
$GPGGA,083547.00,0127.5139311,N,10349.0230846,E,2,44,0.4,20.7563,M,3.7096,M,3.3,0122*4A
$GPGST,083547.00,2.078,2.905,2.594,296.208,2.657,2.847,6.362*5A
$GPGGA,083548.00,0127.5139314,N,10349.0230852,E,2,44,0.4,20.7625,M,3.7096,M,4.3,0122*43
$GPGST,083548.00,2.051,2.905,2.594,296.200,2.657,2.847,6.363*57
$GPGGA,083549.00,0127.5139322,N,10349.0230849,E,2,44,0.4,20.7702,M,3.7096,M,2.0,0122*4C
$GPGST,083549.00,2.061,2.906,2.594,296.247,2.658,2.847,6.365*5C
$GPGGA,083550.00,0127.5139329,N,10349.0230854,E,2,44,0.4,20.7771,M,3.7096,M,3.0,0122*46
$GPGST,083550.00,2.077,2.907,2.594,296.311,2.658,2.848,6.368*52
$GPGGA,083551.00,0127.5139332,N,10349.0230857,E,2,44,0.4,20.7868,M,3.7096,M,2.3,0122*4B
$GPGST,083551.00,2.086,2.907,2.594,296.299,2.658,2.848,6.368*5C
$GPGGA,083552.00,0127.5139316,N,10349.0230850,E,2,44,0.4,20.7884,M,3.7096,M,3.3,0122*4A
$GPGST,083552.00,2.105,2.907,2.594,296.292,2.658,2.848,6.368*5E
$GPGGA,083553.00,0127.5139321,N,10349.0230847,E,2,44,0.4,20.7975,M,3.7096,M,4.3,0122*41
$GPGST,083553.00,2.133,2.907,2.594,296.285,2.658,2.848,6.369*5D
$GPGGA,083554.00,0127.5139329,N,10349.0230828,E,2,44,0.4,20.8030,M,3.7096,M,2.0,0122*45
$GPGST,083554.00,2.162,2.906,2.594,296.208,2.657,2.847,6.367*54
$GPGGA,083555.00,0127.5139324,N,10349.0230831,E,2,44,0.4,20.8052,M,3.7096,M,3.0,0122*44
$GPGST,083555.00,2.143,2.904,2.594,296.117,2.657,2.847,6.364*5A
$GPGGA,083556.00,0127.5139320,N,10349.0230812,E,2,44,0.4,20.8125,M,3.7096,M,2.3,0122*41
$GPGST,083556.00,2.148,2.904,2.594,296.107,2.657,2.847,6.364*53
$GPGGA,083557.00,0127.5139328,N,10349.0230788,E,2,44,0.4,20.8257,M,3.7096,M,5.4,0137*46
$GPGST,083557.00,2.132,2.786,2.720,313.333,2.751,2.755,6.433*51
$GPGGA,083558.00,0127.5139371,N,10349.0230727,E,2,44,0.4,20.8540,M,3.7096,M,4.0,0137*44
$GPGST,083558.00,2.089,2.891,2.622,15.513,2.873,2.642,6.525*6A
$GPGGA,083559.00,0127.5139421,N,10349.0230673,E,2,44,0.4,20.8749,M,3.7096,M,1.4,0137*4D
$GPGST,083559.00,2.090,2.887,2.610,17.495,2.863,2.637,6.517*6A
$GPGGA,083600.00,0127.5139450,N,10349.0230615,E,2,44,0.4,20.8921,M,3.7096,M,2.4,0137*47
$GPGST,083600.00,2.101,2.887,2.608,17.499,2.863,2.635,6.514*68
$GPGGA,083601.00,0127.5139500,N,10349.0230544,E,2,44,0.4,20.9143,M,3.7096,M,3.4,0137*49
$GPGST,083601.00,2.107,2.887,2.609,17.516,2.863,2.636,6.516*69
$GPGGA,083602.00,0127.5139527,N,10349.0230494,E,2,44,0.4,20.9310,M,3.7096,M,4.4,0137*40
$GPGST,083602.00,2.106,2.887,2.610,17.534,2.863,2.636,6.518*6D
$GPGGA,083603.00,0127.5139568,N,10349.0230445,E,2,43,0.4,20.9460,M,3.7096,M,5.4,0137*40
$GPGST,083603.00,2.075,2.887,2.611,17.552,2.863,2.637,6.520*62
$GPGGA,083604.00,0127.5139591,N,10349.0230387,E,2,44,0.4,20.9695,M,3.7096,M,4.0,0137*42
$GPGST,083604.00,2.122,2.887,2.612,17.592,2.863,2.638,6.521*67
$GPGGA,083605.00,0127.5139753,N,10349.0230215,E,2,44,0.4,20.9738,M,3.7096,M,1.4,0137*42
$GPGST,083605.00,2.135,2.887,2.613,17.578,2.863,2.639,6.520*65
$GPGGA,083606.00,0127.5139771,N,10349.0230185,E,2,44,0.4,21.0024,M,3.7096,M,2.4,0137*4A
$GPGST,083606.00,2.115,2.887,2.614,17.510,2.863,2.640,6.518*68
$GPGGA,083607.00,0127.5139820,N,10349.0230126,E,2,44,0.4,21.0254,M,3.7096,M,3.4,0137*4D
$GPGST,083607.00,2.119,2.887,2.615,17.536,2.863,2.640,6.520*6B
$GPGGA,083608.00,0127.5139860,N,10349.0230075,E,2,44,0.4,21.0426,M,3.7096,M,4.4,0137*45
$GPGST,083608.00,2.098,2.887,2.616,17.553,2.863,2.641,6.522*6F
$GPGGA,083609.00,0127.5139902,N,10349.0230026,E,2,44,0.4,21.0561,M,3.7096,M,5.4,0137*44
$GPGST,083609.00,2.101,2.887,2.617,17.575,2.863,2.642,6.524*6F
$GPGGA,083610.00,0127.5139925,N,10349.0229985,E,2,44,0.4,21.0759,M,3.7096,M,4.0,0137*4D
$GPGST,083610.00,2.108,2.887,2.617,17.615,2.863,2.643,6.525*6B
$GPGGA,083611.00,0127.5139958,N,10349.0229927,E,2,44,0.4,21.0919,M,3.7096,M,1.4,0137*45
$GPGST,083611.00,2.121,2.887,2.615,17.633,2.863,2.642,6.523*60
$GPGGA,083612.00,0127.5139991,N,10349.0229892,E,2,44,0.4,21.1089,M,3.7096,M,2.4,0137*4E
$GPGST,083612.00,2.078,2.887,2.613,17.616,2.863,2.639,6.520*60
$GPGGA,083613.00,0127.5140016,N,10349.0229842,E,2,44,0.4,21.1254,M,3.7096,M,3.4,0137*49
$GPGST,083613.00,2.064,2.887,2.614,17.632,2.863,2.640,6.522*61
$GPGGA,083614.00,0127.5140051,N,10349.0229789,E,2,44,0.4,21.1366,M,3.7096,M,4.4,0137*42
$GPGST,083614.00,2.136,2.887,2.615,17.654,2.863,2.641,6.524*66
$GPGGA,083615.00,0127.5140079,N,10349.0229742,E,2,44,0.4,21.1597,M,3.7096,M,5.4,0137*47
$GPGST,083615.00,2.132,2.887,2.616,17.677,2.863,2.642,6.526*60
$GPGGA,083616.00,0127.5140304,N,10349.0229279,E,2,44,0.4,21.3016,M,3.7096,M,4.0,0137*4B
$GPGST,083616.00,2.140,2.887,2.617,17.712,2.863,2.643,6.527*65
$GPGGA,083617.00,0127.5140842,N,10349.0228808,E,2,44,0.4,21.3529,M,3.7096,M,1.4,0137*46
$GPGST,083617.00,2.091,2.887,2.625,17.503,2.864,2.650,6.565*69
$GPGGA,083618.00,0127.5141165,N,10349.0228109,E,2,44,0.4,21.4367,M,3.7095,M,2.4,0137*47
$GPGST,083618.00,2.093,2.887,2.637,17.161,2.866,2.660,6.616*61
$GPGGA,083619.00,0127.5141164,N,10349.0228381,E,2,44,0.4,21.4456,M,3.7095,M,3.4,0137*41
$GPGST,083619.00,2.089,2.887,2.637,17.202,2.866,2.660,6.614*6F
$GPGGA,083620.00,0127.5141153,N,10349.0228174,E,2,44,0.4,21.4557,M,3.7095,M,4.4,0137*40
$GPGST,083620.00,2.081,2.887,2.638,17.218,2.866,2.661,6.617*6B
$GPGGA,083621.00,0127.5140943,N,10349.0228196,E,2,44,0.4,21.4607,M,3.7095,M,5.4,0137*42
$GPGST,083621.00,2.072,2.887,2.640,17.229,2.866,2.662,6.620*6C
$GPGGA,083622.00,0127.5140470,N,10349.0228227,E,2,44,0.4,21.3700,M,3.7095,M,4.0,0137*41
$GPGST,083622.00,2.063,2.887,2.641,17.258,2.866,2.663,6.622*6B
$GPGGA,083623.00,0127.5140781,N,10349.0227785,E,2,44,0.4,21.3933,M,3.7095,M,1.4,0137*40
$GPGST,083623.00,2.002,2.887,2.639,17.286,2.866,2.661,6.619*6B
$GPGGA,083624.00,0127.5141225,N,10349.0227669,E,2,44,0.4,21.4058,M,3.7095,M,2.4,0137*4E
$GPGST,083624.00,1.993,2.887,2.636,17.285,2.865,2.659,6.615*66
$GPGGA,083625.00,0127.5140943,N,10349.0228014,E,2,44,0.4,21.4378,M,3.7095,M,3.4,0137*46
$GPGST,083625.00,1.964,2.887,2.638,17.515,2.866,2.662,6.617*66
$GPGGA,083626.00,0127.5141686,N,10349.0228231,E,2,44,0.4,21.4024,M,3.7095,M,4.4,0137*4A
$GPGST,083626.00,1.975,2.888,2.642,17.821,2.866,2.666,6.619*67
$GPGGA,083627.00,0127.5142230,N,10349.0228097,E,2,44,0.4,21.4448,M,3.7095,M,5.4,0137*40
$GPGST,083627.00,1.953,2.888,2.643,17.829,2.866,2.667,6.622*62
$GPGGA,083628.00,0127.5142135,N,10349.0228199,E,2,44,0.4,21.4589,M,3.7095,M,4.0,0137*4F
$GPGST,083628.00,1.967,2.888,2.644,17.872,2.866,2.668,6.624*6A
$GPGGA,083629.00,0127.5142638,N,10349.0229209,E,2,44,0.4,21.4669,M,3.7096,M,1.4,0137*40
$GPGST,083629.00,1.998,2.888,2.642,17.884,2.866,2.666,6.621*6F
$GPGGA,083630.00,0127.5142744,N,10349.0229254,E,2,44,0.4,21.5083,M,3.7096,M,2.4,0137*4A
$GPGST,083630.00,1.983,2.888,2.639,17.852,2.865,2.663,6.617*69
$GPGGA,083631.00,0127.5142770,N,10349.0229246,E,2,44,0.4,21.5155,M,3.7096,M,3.4,0137*44
$GPGST,083631.00,2.031,2.888,2.640,17.872,2.865,2.664,6.619*6E
$GPGGA,083632.00,0127.5142321,N,10349.0228596,E,2,44,0.4,21.5332,M,3.7095,M,4.4,0137*4B
$GPGST,083632.00,2.076,2.888,2.641,17.894,2.866,2.666,6.621*6D
$GPGGA,083633.00,0127.5141896,N,10349.0228061,E,2,44,0.4,21.5365,M,3.7095,M,5.4,0137*40
$GPGST,083633.00,2.092,2.888,2.643,17.917,2.866,2.667,6.624*6A
$GPGGA,083634.00,0127.5141671,N,10349.0228315,E,2,44,0.4,21.5493,M,3.7095,M,4.0,0137*4B
$GPGST,083634.00,2.109,2.888,2.644,17.966,2.866,2.668,6.626*62
$GPGGA,083635.00,0127.5141740,N,10349.0228386,E,2,44,0.4,21.5151,M,3.7095,M,1.4,0137*49
$GPGST,083635.00,2.096,2.888,2.641,17.979,2.865,2.666,6.623*67
$GPGGA,083636.00,0127.5141822,N,10349.0228426,E,2,44,0.4,21.4944,M,3.7095,M,2.4,0137*42
$GPGST,083636.00,2.054,2.888,2.639,17.941,2.865,2.663,6.619*62
$GPGGA,083637.00,0127.5141902,N,10349.0228574,E,2,44,0.4,21.5024,M,3.7095,M,3.4,0137*49
$GPGST,083637.00,2.002,2.888,2.640,17.931,2.865,2.665,6.622*67
$GPGGA,083638.00,0127.5141979,N,10349.0228684,E,2,44,0.4,21.5182,M,3.7095,M,4.4,0137*4C
$GPGST,083638.00,1.984,2.888,2.643,17.909,2.866,2.667,6.625*62
$GPGGA,083639.00,0127.5142070,N,10349.0228745,E,2,44,0.4,21.5303,M,3.7096,M,5.4,0137*4B
$GPGST,083639.00,1.934,2.888,2.644,17.941,2.866,2.668,6.628*61
$GPGGA,083640.00,0127.5142103,N,10349.0228697,E,2,44,0.4,21.5363,M,3.7095,M,4.0,0137*4E
$GPGST,083640.00,1.908,2.888,2.645,17.992,2.866,2.669,6.630*67
$GPGGA,083641.00,0127.5142159,N,10349.0228641,E,2,44,0.4,21.5425,M,3.7095,M,1.4,0137*4F
$GPGST,083641.00,1.884,2.888,2.643,18.003,2.865,2.667,6.627*60
$GPGGA,083642.00,0127.5142234,N,10349.0228654,E,2,44,0.4,21.5441,M,3.7095,M,2.4,0137*41
$GPGST,083642.00,1.902,2.888,2.640,17.964,2.865,2.664,6.623*6F
$GPGGA,083643.00,0127.5142329,N,10349.0228618,E,2,44,0.4,21.5436,M,3.7095,M,3.4,0137*44
$GPGST,083643.00,1.916,2.865,2.622,22.900,2.830,2.661,6.564*6D
$GPGGA,083644.00,0127.5142417,N,10349.0228608,E,2,44,0.4,21.5378,M,3.7095,M,4.4,0137*42
$GPGST,083644.00,1.954,2.840,2.600,28.822,2.786,2.657,6.491*6C
$GPGGA,083645.00,0127.5142480,N,10349.0228559,E,2,44,0.4,21.5385,M,3.7095,M,5.4,0137*49
$GPGST,083645.00,1.958,2.841,2.596,29.096,2.785,2.656,6.493*6A
$GPGGA,083646.00,0127.5142546,N,10349.0228537,E,2,44,0.4,21.5348,M,3.7095,M,4.0,0137*4D
$GPGST,083646.00,1.992,2.841,2.597,29.206,2.785,2.657,6.495*62
$GPGGA,083647.00,0127.5142582,N,10349.0228521,E,2,44,0.4,21.5367,M,3.7095,M,1.4,0137*4F
$GPGST,083647.00,1.993,2.841,2.595,29.134,2.785,2.655,6.492*67
$GPGGA,083648.00,0127.5142635,N,10349.0228502,E,2,44,0.4,21.5370,M,3.7095,M,2.4,0137*4B
$GPGST,083648.00,2.011,2.841,2.592,28.973,2.784,2.653,6.487*66
$GPGGA,083649.00,0127.5142680,N,10349.0228487,E,2,44,0.4,21.5359,M,3.7095,M,3.4,0137*42
$GPGST,083649.00,2.095,2.841,2.593,29.031,2.784,2.654,6.489*6D
$GPGGA,083650.00,0127.5142747,N,10349.0228506,E,2,44,0.4,21.5348,M,3.7095,M,4.4,0137*4F
$GPGST,083650.00,2.128,2.841,2.594,29.103,2.784,2.655,6.492*6E
$GPGGA,083651.00,0127.5145629,N,10349.0228285,E,2,44,0.4,21.7032,M,3.7095,M,5.4,0137*41
$GPGST,083651.00,2.141,2.841,2.596,29.177,2.785,2.656,6.495*64
$GPGGA,083652.00,0127.5148450,N,10349.0228703,E,2,44,0.4,21.8597,M,3.7095,M,4.0,0137*48
$GPGST,083652.00,2.180,2.841,2.597,29.271,2.785,2.657,6.497*6D
$GPGGA,083653.00,0127.5152536,N,10349.0228560,E,2,44,0.4,21.7861,M,3.7095,M,1.4,0137*4E
$GPGST,083653.00,2.157,2.841,2.594,29.200,2.784,2.655,6.494*63
$GPGGA,083654.00,0127.5156665,N,10349.0228125,E,2,44,0.4,21.7246,M,3.7095,M,2.4,0137*41
$GPGST,083654.00,2.139,2.840,2.592,29.047,2.784,2.652,6.489*61
$GPGGA,083655.00,0127.5160646,N,10349.0228653,E,2,44,0.4,21.7544,M,3.7095,M,3.4,0137*46
